School Number,School Name,Board Name,School Level,Latitude,Longitude
902344,Algoma Education Connection Secondary School,Algoma DSB,Secondary,46.53477,-84.3077
019186,Anna McCrea Public School,Algoma DSB,Elementary,46.50593,-84.2873
043362,Ben R McMullin Public School,Algoma DSB,Elementary,46.52455,-84.298
054542,Blind River Public School,Algoma DSB,Elementary,46.18454,-82.9576
490822,Boreal French Immersion Public School,Algoma DSB,Elementary,46.52447,-84.3107
137967,Central Algoma Intermediate School,Algoma DSB,Elementary,46.34007,-83.9369
285552,Central Algoma Public School,Algoma DSB,Elementary,46.34875,-83.9253
891347,Central Algoma Secondary School,Algoma DSB,Secondary,46.33811,-83.9355
093548,Central Avenue Public School,Algoma DSB,Elementary,46.3904,-82.6588
900869,Chapleau High School,Algoma DSB,Secondary,47.84273,-83.4083
101214,Chapleau Public School,Algoma DSB,Elementary,47.84496,-83.4033
161276,East View Public School,Algoma DSB,Elementary,46.51668,-84.28
165042,Echo Bay Central Public School,Algoma DSB,Elementary,46.48567,-84.0637
293055,Elliot Lake Intermediate School,Algoma DSB,Elementary,46.3761958,-82.66064332
908010,Elliot Lake Secondary School,Algoma DSB,Secondary,46.37627,-82.6611
186783,Esten Park Public School,Algoma DSB,Elementary,46.37191,-82.6198
202614,Francis H Clergue Public School,Algoma DSB,Elementary,46.51862,-84.3096
227331,Grand View Public School,Algoma DSB,Elementary,46.50955,-84.2659
230561,Greenwood Public School,Algoma DSB,Elementary,46.56732,-84.3528
237191,H M Robbins Public School,Algoma DSB,Elementary,46.5328,-84.3895
917370,Hornepayne High School,Algoma DSB,Secondary,49.21525,-84.7789
264750,Hornepayne Public School,Algoma DSB,Elementary,49.2167,-84.78
278270,Isabel Fletcher Public School,Algoma DSB,Elementary,46.55114,-84.3789
302350,Kiwedin Public School,Algoma DSB,Elementary,46.54201,-84.3351
920533,Korah Collegiate and Vocational School,Algoma DSB,Secondary,46.54269,-84.3816
018309,Korah Intermediate School,Algoma DSB,Elementary,46.54247,-84.3821
926086,Michipicoten High School,Algoma DSB,Secondary,47.99317,-84.7758
195200,Mountain View Public School,Algoma DSB,Elementary,46.77124,-84.3616
891150,North Shore Adolescent Education School,Algoma DSB,Secondary,46.37987,-82.6565
410870,Northern Heights Public School,Algoma DSB,Elementary,46.53072,-84.329
434922,Parkland Public School,Algoma DSB,Elementary,46.51456,-84.2582
442054,Pinewood Public School,Algoma DSB,Elementary,46.52417,-84.2477
462616,Queen Elizabeth Public School,Algoma DSB,Elementary,46.50658,-84.3041
468339,R M Moore Public School,Algoma DSB,Elementary,46.52177,-84.4441
485497,River View Public School,Algoma DSB,Elementary,46.51751,-84.299
515396,Sir James Dunn Public School,Algoma DSB,Elementary,47.99693,-84.7728
530603,St Joseph Island Central Public School,Algoma DSB,Elementary,46.28922,-84.0347
958050,Superior Heights Collegiate and Vocational School,Algoma DSB,Secondary,46.50845,-84.2882
672610,Superior Heights Community Education,Algoma DSB,Elementary,46.53951,-84.3349
106913,Superior Heights Intermediate School,Algoma DSB,Elementary,46.53951,-84.3349
548413,Tarentorus Public School,Algoma DSB,Elementary,46.54554,-84.3085
551660,Thessalon Public School,Algoma DSB,Elementary,46.2604,-83.559
895270,W C Eaket Secondary School,Algoma DSB,Secondary,46.18877,-82.9467
953148,White Pines Collegiate and Vocational School,Algoma DSB,Secondary,46.52684,-84.256
144872,White Pines Intermediate School,Algoma DSB,Elementary,46.52799,-84.2599
765031,Archbishop O'Sullivan Catholic School,Algonquin and Lakeshore CDSB,Elementary,44.2496,-76.5849
827681,Cathedrale Catholic School,Algonquin and Lakeshore CDSB,Elementary,44.23167,-76.491
708011,Georges Vanier Catholic School,Algonquin and Lakeshore CDSB,Elementary,44.18404,-77.4013
715298,Holy Cross Catholic Secondary School,Algonquin and Lakeshore CDSB,Secondary,44.25899,-76.5987
717703,Holy Name Catholic School,Algonquin and Lakeshore CDSB,Elementary,44.30068,-76.4242
865257,Holy Name of Mary Catholic School,Algonquin and Lakeshore CDSB,Elementary,44.22671,-77.1368
719919,Holy Rosary Catholic School,Algonquin and Lakeshore CDSB,Elementary,44.17815,-77.3845
735523,J J O'Neill Catholic School,Algonquin and Lakeshore CDSB,Elementary,44.24701,-76.9636
728420,Loyola Community Learning Centre,Algonquin and Lakeshore CDSB,Secondary,44.2508,-76.5329
835099,Nicholson Catholic College,Algonquin and Lakeshore CDSB,Secondary,44.16855,-77.3825
690932,Nicholson Catholic College (Grade 7 & 8),Algonquin and Lakeshore CDSB,Elementary,44.163489,-77.367578
742279,Our Lady of Fatima Catholic School,Algonquin and Lakeshore CDSB,Elementary,44.16552,-77.4014
746568,Our Lady of Lourdes Catholic School,Algonquin and Lakeshore CDSB,Elementary,44.22013,-76.5708
746690,Our Lady of Mercy Catholic School,Algonquin and Lakeshore CDSB,Elementary,45.05601,-77.8624
706264,Our Lady of Mount Carmel Catholic School,Algonquin and Lakeshore CDSB,Elementary,44.2236,-76.6407
752932,Regiopolis/Notre-Dame Catholic High School,Algonquin and Lakeshore CDSB,Secondary,44.24334,-76.4939
756830,Sacred Heart Catholic School,Algonquin and Lakeshore CDSB,Elementary,44.48104,-77.6787
764370,Sacred Heart Catholic School,Algonquin and Lakeshore CDSB,Elementary,44.17001,-77.5964
868370,Sacred Heart Catholic School,Algonquin and Lakeshore CDSB,Elementary,44.19003,-76.442
781142,St Carthagh Catholic School,Algonquin and Lakeshore CDSB,Elementary,44.47874,-77.317
756642,St Francis of Assisi Catholic School,Algonquin and Lakeshore CDSB,Elementary,44.26086,-76.4907
796220,St Gregory Catholic School,Algonquin and Lakeshore CDSB,Elementary,44.00879,-77.1326
799556,St James Major,Algonquin and Lakeshore CDSB,Elementary,44.77277,-76.6883
815330,St Joseph Catholic School,Algonquin and Lakeshore CDSB,Elementary,44.16896,-77.3584
830984,St Marguerite Bourgeoys Catholic School,Algonquin and Lakeshore CDSB,Elementary,44.25374,-76.5534
823570,St Martha Catholic School,Algonquin and Lakeshore CDSB,Elementary,44.26573,-76.4467
824330,St Martin of Tours Catholic School,Algonquin and Lakeshore CDSB,Elementary,45.49137,-78.2361
831840,St Mary Catholic School,Algonquin and Lakeshore CDSB,Elementary,44.10885,-77.5662
865125,St Mary Catholic School,Algonquin and Lakeshore CDSB,Elementary,44.3069,-77.2217
834688,St Michael Catholic School,Algonquin and Lakeshore CDSB,Elementary,44.16771,-77.3821
764248,St Patrick Catholic School,Algonquin and Lakeshore CDSB,Elementary,44.48645,-77.0527
841773,St Patrick Catholic School,Algonquin and Lakeshore CDSB,Elementary,44.39978,-76.67
706744,St Paul Catholic Elementary School,Algonquin and Lakeshore CDSB,Elementary,44.0943,-77.5974
842761,St Paul Catholic School,Algonquin and Lakeshore CDSB,Elementary,44.24963,-76.5241
841358,St Paul Catholic Secondary School,Algonquin and Lakeshore CDSB,Secondary,44.09403,-77.5981
845493,St Peter Catholic School,Algonquin and Lakeshore CDSB,Elementary,44.09989,-77.579
851752,St Theresa Catholic Secondary School,Algonquin and Lakeshore CDSB,Secondary,44.19052,-77.3819
856150,St Thomas More Catholic School,Algonquin and Lakeshore CDSB,Elementary,44.23513,-76.524
724068,St. John XXIII Catholic School,Algonquin and Lakeshore CDSB,Elementary,44.24649,-76.6039
773875,St. Teresa of Calcutta Catholic School,Algonquin and Lakeshore CDSB,Elementary,44.25586,-76.5982
019313,Anne Hathaway Public School,Avon Maitland DSB,Elementary,43.3579,-80.972
893048,Avon Maitland District E-learning Centre,Avon Maitland DSB,Secondary,43.6186,-81.5326
028673,Avon Public School,Avon Maitland DSB,Elementary,43.37444,-80.9979
039306,Bedford Public School,Avon Maitland DSB,Elementary,43.3824,-80.9722
272319,Bluewater Coast Elementary Public School,Avon Maitland DSB,Elementary,43.43146,-81.5015
066699,Brookside Public School,Avon Maitland DSB,Elementary,43.89914,-81.5709
899569,Central Huron Secondary School,Avon Maitland DSB,Secondary,43.61681,-81.5337
093718,Central Perth Elementary School,Avon Maitland DSB,Elementary,43.46305,-81.0266
112917,Clinton Public School,Avon Maitland DSB,Elementary,43.61488,-81.532
145912,Downie Central Public School,Avon Maitland DSB,Elementary,43.32748,-81.0775
175170,Elma Township Public School,Avon Maitland DSB,Elementary,43.65629,-81.0259
190527,Exeter Elementary School,Avon Maitland DSB,Elementary,43.35124,-81.4776
953776,F E Madill Secondary School,Avon Maitland DSB,Secondary,43.88247,-81.3064
181908,F. E. Madill Elementary,Avon Maitland DSB,Elementary,43.8824,-81.3064
450242,GDCI - Elementary,Avon Maitland DSB,Elementary,43.73417,-81.7112
913600,Goderich District Collegiate Institute,Avon Maitland DSB,Secondary,43.73412,-81.7112
478133,Goderich Public School,Avon Maitland DSB,Elementary,43.73468,-81.7164
242527,Hamlet Public School,Avon Maitland DSB,Elementary,43.3645,-80.9909
268003,Howick Central Public School,Avon Maitland DSB,Elementary,43.88372,-81.054
268640,Hullett Central Public School,Avon Maitland DSB,Elementary,43.69759,-81.4775
273694,Huron Centennial Public School,Avon Maitland DSB,Elementary,43.50722,-81.5155
923095,Listowel District Secondary School,Avon Maitland DSB,Secondary,43.72751,-80.9467
163619,Listowel Eastdale Public School,Avon Maitland DSB,Elementary,43.72679,-80.9496
285535,Little Falls Public School,Avon Maitland DSB,Elementary,43.25111,-81.1319
517103,Maitland River Elementary Public School,Avon Maitland DSB,Elementary,43.88225,-81.3033
366021,Milverton Public School,Avon Maitland DSB,Elementary,43.56293,-80.915
135064,Mitchell District Elementary Public School,Avon Maitland DSB,Elementary,43.47518,-81.1895
927120,Mitchell District High School,Avon Maitland DSB,Secondary,43.47518,-81.1895
372781,Mornington Central Public School,Avon Maitland DSB,Elementary,43.61469,-80.8846
406040,North Easthope Public School,Avon Maitland DSB,Elementary,43.42512,-80.864
459441,North Perth Westfield Elementary School,Avon Maitland DSB,Elementary,43.74007,-80.9644
578519,North Woods Elementary School,Avon Maitland DSB,Elementary,43.71417,-81.145
490040,Romeo Public School,Avon Maitland DSB,Elementary,43.36905,-80.9779
504475,Seaforth Public School,Avon Maitland DSB,Elementary,43.55481,-81.3889
507725,Shakespeare Public School,Avon Maitland DSB,Elementary,43.36207,-80.9829
943118,South Huron District High School,Avon Maitland DSB,Secondary,43.34951,-81.4774
469900,South Huron Elementary Public School,Avon Maitland DSB,Elementary,43.34944,-81.4776
523267,South Perth Centennial Public School,Avon Maitland DSB,Elementary,43.26794,-81.193
528650,Sprucedale Public School,Avon Maitland DSB,Elementary,43.36809,-80.8394
944807,St Marys D.C. & V. I. High School,Avon Maitland DSB,Secondary,43.257,-81.1339
100438,St Marys D.C. & V.I. - Elementary Elementary Public School,Avon Maitland DSB,Elementary,43.25705,-81.1339
535508,Stephen Central Public School,Avon Maitland DSB,Elementary,43.29587,-81.5989
893395,Stratford District Secondary School,Avon Maitland DSB,Secondary,43.385338,-80.993501
097284,Stratford Intermediate School,Avon Maitland DSB,Elementary,43.371098,-80.988298
566667,Upper Thames Elementary School,Avon Maitland DSB,Elementary,43.4736,-81.1857
417556,Bloorview School Authority,Bloorview SA,Elementary,43.71881,-79.3725
010472,Alexandra Community School,Bluewater DSB,Elementary,44.57298,-80.9294
011606,Amabel-Sauble Community School,Bluewater DSB,Elementary,44.65046,-81.2568
022322,Arran Tara Elementary School,Bluewater DSB,Elementary,44.48145,-81.1525
552585,Beaver Valley Community School,Bluewater DSB,Elementary,44.55342,-80.4621
340804,Beavercrest Community School,Bluewater DSB,Elementary,44.3194,-80.64357
918587,Bluewater Alternative Education School,Bluewater DSB,Secondary,44.31022,-81.09646
067709,Bruce Peninsula District School,Bluewater DSB,Elementary,44.98479,-81.2519
896969,Bruce Peninsula District School,Bluewater DSB,Secondary,44.98478,-81.2519
169200,Chesley District Community School,Bluewater DSB,Elementary,44.30696,-81.0976
135143,Dawnview Public School,Bluewater DSB,Elementary,44.14548,-81.0209
458554,Dundalk & Proton Community School,Bluewater DSB,Elementary,44.16499,-80.3897
331307,East Ridge Community School,Bluewater DSB,Elementary,44.56713,-80.9161
167649,Egremont Community School,Bluewater DSB,Elementary,44.06142,-80.7596
293776,Elgin Market Public School,Bluewater DSB,Elementary,44.16484,-81.6435
524239,G C Huston Public School,Bluewater DSB,Elementary,44.49686,-81.3679
180789,Georgian Bay Community School,Bluewater DSB,Elementary,44.59316,-80.58322
925438,Georgian Bay Community School Secondary School,Bluewater DSB,Secondary,44.59316,-80.58322
914444,Grey Highlands Secondary School,Bluewater DSB,Secondary,44.25865,-80.5452
281131,Hanover Heights Community School,Bluewater DSB,Elementary,44.15626,-81.0223
253316,Hepworth Central Public School,Bluewater DSB,Elementary,44.63228,-81.1363
152820,Highpoint Community Elementary School,Bluewater DSB,Elementary,44.16386,-80.3986
257168,Hillcrest Central School,Bluewater DSB,Elementary,43.99987,-81.2903
257869,Hillcrest Elementary School,Bluewater DSB,Elementary,44.56251,-80.9505
262935,Holland-Chatsworth Central School,Bluewater DSB,Elementary,44.41398,-80.8287
273775,Huron Heights Public School,Bluewater DSB,Elementary,44.16912,-81.6201
007681,John Diefenbaker Senior School,Bluewater DSB,Elementary,44.14765,-81.01229
915556,John Diefenbaker Senior School,Bluewater DSB,Secondary,44.14765,-81.01229
291030,Keppel-Sarawak Elementary School,Bluewater DSB,Elementary,44.58898,-80.9544
919454,Kincardine District Secondary School,Bluewater DSB,Secondary,44.17732,-81.6278
151668,Kincardine District Senior School,Bluewater DSB,Elementary,44.17695,-81.6282
293750,Kincardine Township-Tiverton Public School,Bluewater DSB,Elementary,44.18603,-81.6068
323900,Lucknow Central Public School,Bluewater DSB,Elementary,43.95731,-81.5092
198978,Macphail Memorial Elementary School,Bluewater DSB,Elementary,44.2585,-80.5487
364290,Mildmay-Carrick Central School,Bluewater DSB,Elementary,44.0374,-81.1117
401129,Normanby Community School,Bluewater DSB,Elementary,44.05811,-80.9276
403741,Northport Elementary School,Bluewater DSB,Elementary,44.44679,-81.3837
093939,Osprey Central School,Bluewater DSB,Elementary,44.31534,-80.37
951692,Owen Sound District Secondary School Secondary School,Bluewater DSB,Secondary,44.56513,-80.9575
431028,Paisley Central School,Bluewater DSB,Elementary,44.29813,-81.2736
605743,Peninsula Shores District School,Bluewater DSB,Elementary,44.74086,-81.1507
953253,Peninsula Shores District School,Bluewater DSB,Secondary,44.74067,-81.1492
450910,Port Elgin-Saugeen Central School,Bluewater DSB,Elementary,44.43482,-81.3942
484970,Ripley-Huron Community - Junior Campus School,Bluewater DSB,Elementary,44.07316,-81.5823
940127,Saugeen District Secondary School,Bluewater DSB,Secondary,44.4329,-81.3834
290604,Saugeen District Senior School,Bluewater DSB,Elementary,44.43179,-81.3847
155683,Spruce Ridge Community School,Bluewater DSB,Elementary,44.17444,-80.8128
529826,St Edmunds Public School,Bluewater DSB,Elementary,45.22907,-81.6623
540200,Sullivan Community School,Bluewater DSB,Elementary,44.40274,-80.9897
569565,Walkerton District Community School,Bluewater DSB,Elementary,44.11726,-81.1476
950262,Walkerton District Community School,Bluewater DSB,Secondary,44.11732,-81.1477
688088,Assumption College School High School,Brant Haldimand Norfolk CDSB,Secondary,43.12153,-80.2974
690015,Blessed Sacrament School,Brant Haldimand Norfolk CDSB,Elementary,43.10081,-80.443
696900,Christ the King School,Brant Haldimand Norfolk CDSB,Elementary,43.14795,-80.2832
714453,Holy Cross School,Brant Haldimand Norfolk CDSB,Elementary,43.14676,-80.2419
716960,Holy Family School,Brant Haldimand Norfolk CDSB,Elementary,43.20659,-80.3899
720232,Holy Trinity Catholic High School,Brant Haldimand Norfolk CDSB,Secondary,42.82441,-80.3115
750259,Madonna Della Libera Catholic Elementary School,Brant Haldimand Norfolk CDSB,Elementary,43.1212,-80.2496
736481,Notre Dame Catholic Catholic Elementary School,Brant Haldimand Norfolk CDSB,Elementary,43.06181,-79.9638
739200,Notre Dame School,Brant Haldimand Norfolk CDSB,Elementary,43.18154,-80.236
743968,Our Lady of Fatima School,Brant Haldimand Norfolk CDSB,Elementary,42.83766,-80.6339
749125,Our Lady of Providence Catholic Elementary School,Brant Haldimand Norfolk CDSB,Elementary,43.17546,-80.2852
753084,Resurrection School,Brant Haldimand Norfolk CDSB,Elementary,43.18063,-80.258
762756,Sacred Heart Catholic Elementary School,Brant Haldimand Norfolk CDSB,Elementary,43.22801,-80.4171
759309,Sacred Heart School,Brant Haldimand Norfolk CDSB,Elementary,42.74055,-80.5818
751898,St John's College,Brant Haldimand Norfolk CDSB,Secondary,43.16038,-80.2885
704940,St. Basil Catholic Elementary School,Brant Haldimand Norfolk CDSB,Elementary,43.11262,-80.2969
779067,St. Bernard of Clairvaux School,Brant Haldimand Norfolk CDSB,Elementary,42.9263,-80.2931
782050,St. Cecilia's School,Brant Haldimand Norfolk CDSB,Elementary,42.79584,-80.2219
789984,St. Frances Cabrini School,Brant Haldimand Norfolk CDSB,Elementary,42.85253,-80.4887
793256,St. Gabriel Catholic Catholic Elementary School,Brant Haldimand Norfolk CDSB,Elementary,43.12416,-80.2943
810827,St. Joseph's School,Brant Haldimand Norfolk CDSB,Elementary,42.83245,-80.2952
818453,St. Leo School,Brant Haldimand Norfolk CDSB,Elementary,43.18406,-80.2685
852434,St. Mary Catholic Learning Centre Day,Brant Haldimand Norfolk CDSB,Secondary,43.13919,-80.2509
831450,St. Mary's School,Brant Haldimand Norfolk CDSB,Elementary,42.9571,-80.0572
834831,St. Michael's C School,Brant Haldimand Norfolk CDSB,Elementary,42.76425,-80.3869
834963,St. Michael's School,Brant Haldimand Norfolk CDSB,Elementary,42.90629,-79.6201
840530,St. Patrick School,Brant Haldimand Norfolk CDSB,Elementary,43.1699,-80.2592
840556,St. Patrick's School,Brant Haldimand Norfolk CDSB,Elementary,43.07555,-79.9473
844977,St. Peter School,Brant Haldimand Norfolk CDSB,Elementary,43.14332,-80.2197
846791,St. Pius X Catholic Elementary School,Brant Haldimand Norfolk CDSB,Elementary,43.16488,-80.2723
850950,St. Stephen's School,Brant Haldimand Norfolk CDSB,Elementary,42.94849,-79.8579
853038,St. Theresa School,Brant Haldimand Norfolk CDSB,Elementary,43.13095,-80.3284
721255,Ecole Immaculee-Conception Separate School,Bruce-Grey CDSB,Elementary,44.06793,-81.2104
711985,Holy Family Separate School,Bruce-Grey CDSB,Elementary,44.14849,-81.0259
710296,Mary Immaculate Community School,Bruce-Grey CDSB,Elementary,44.15323,-81.2792
737399,Notre Dame Catholic School,Bruce-Grey CDSB,Elementary,44.58869,-80.9224
759430,Sacred Heart High School,Bruce-Grey CDSB,Secondary,44.12717,-81.1436
732133,Sacred Heart School,Bruce-Grey CDSB,Elementary,44.04037,-81.117
864218,Sacred Heart Separate School,Bruce-Grey CDSB,Elementary,43.99533,-81.2887
774332,St Anthony's Separate School,Bruce-Grey CDSB,Elementary,44.17023,-81.6228
776602,St Basil's Separate School,Bruce-Grey CDSB,Elementary,44.56372,-80.9608
751464,St Joseph's School,Bruce-Grey CDSB,Elementary,44.43693,-81.3926
776599,St Mary's High School,Bruce-Grey CDSB,Secondary,44.57386,-80.9341
705098,St Peter's & St Paul's Separate School,Bruce-Grey CDSB,Elementary,44.18514,-80.8221
732800,St Teresa of Calcutta Catholic School,Bruce-Grey CDSB,Elementary,44.11552,-81.1478
689610,Bishop Macdonell Separate School,CDSB of Eastern Ontario,Elementary,45.0218,-74.724
715131,Holy Cross School,CDSB of Eastern Ontario,Elementary,45.0125,-75.6543
828203,Holy Name of Mary Separate School,CDSB of Eastern Ontario,Elementary,45.2309,-76.1834
821553,Holy Trinity Catholic Elementary School,CDSB of Eastern Ontario,Elementary,45.0446,-74.6705
715190,Holy Trinity Catholic Secondary School,CDSB of Eastern Ontario,Secondary,45.0476,-74.6726
696269,Iona Academy,CDSB of Eastern Ontario,Elementary,45.2141,-74.5961
691127,J L Jordan Separate School,CDSB of Eastern Ontario,Elementary,44.60939,-75.6797
736457,Notre Dame Catholic High School,CDSB of Eastern Ontario,Secondary,45.14297,-76.1583
697630,Notre Dame Catholic Separate School,CDSB of Eastern Ontario,Elementary,45.14297,-76.1583
741361,Our Lady of Good Counsel Separate School,CDSB of Eastern Ontario,Elementary,45.0034,-74.9915
759040,Sacred Heart School,CDSB of Eastern Ontario,Elementary,45.03578,-74.7434
758787,Sacred Heart of Jesus Separate School,CDSB of Eastern Ontario,Elementary,45.0189,-76.3693
769312,St Andrew's Separate School,CDSB of Eastern Ontario,Elementary,45.0965,-74.8003
771651,St Anne's School,CDSB of Eastern Ontario,Elementary,45.0186,-74.7685
788686,St Edward's School,CDSB of Eastern Ontario,Elementary,44.67964,-76.4024
806102,St Finnan's Catholic School,CDSB of Eastern Ontario,Elementary,45.3051,-74.632
751502,St Francis Xavier Catholic High School,CDSB of Eastern Ontario,Secondary,45.421,-75.2134
792365,St Francis Xavier Elementary School,CDSB of Eastern Ontario,Elementary,45.4211,-75.2136
792322,St Francis Xavier Separate School,CDSB of Eastern Ontario,Elementary,44.5891,-75.6893
791938,St Francis de Sales Separate School,CDSB of Eastern Ontario,Elementary,44.9017,-76.0181
803022,St John Bosco Catholic School,CDSB of Eastern Ontario,Elementary,44.60916,-75.7091
804800,St John Catholic High School,CDSB of Eastern Ontario,Secondary,44.8861,-76.2523
802700,St John Elementary School,CDSB of Eastern Ontario,Elementary,44.89587,-76.248
806277,St Joseph's Secondary School,CDSB of Eastern Ontario,Secondary,45.03634,-74.7506
725374,St Joseph's Separate School,CDSB of Eastern Ontario,Elementary,44.74075,-75.9986
813907,St Joseph's Separate School,CDSB of Eastern Ontario,Elementary,44.33423,-76.1634
736201,St Jude's Catholic Elementary School,CDSB of Eastern Ontario,Elementary,45.5308,-74.6455
824593,St Mary's High School,CDSB of Eastern Ontario,Secondary,44.59973,-75.6959
828726,St Mary's Separate School,CDSB of Eastern Ontario,Elementary,44.59975,-75.6959
828874,St Mary's Separate School,CDSB of Eastern Ontario,Elementary,45.13478,-76.1463
828980,St Mary's Separate School,CDSB of Eastern Ontario,Elementary,45.1008,-75.2275
830283,St Mary-St Cecilia Catholic School,CDSB of Eastern Ontario,Elementary,44.8957,-75.1876
726176,St Matthew Catholic Secondary School,CDSB of Eastern Ontario,Secondary,45.03089,-74.7243
832502,St Michael Elementary School,CDSB of Eastern Ontario,Elementary,45.0239,-75.6509
832480,St Michael High School,CDSB of Eastern Ontario,Secondary,45.0231,-75.6508
753602,St Patrick Catholic Elementary School,CDSB of Eastern Ontario,Elementary,45.5415,-75.2992
844713,St Peter's School,CDSB of Eastern Ontario,Elementary,45.03186,-74.6916
773450,St. Gregory Catholic School,CDSB of Eastern Ontario,Elementary,45.1395,-76.1557
745698,St. James Catholic Education Centre High School,CDSB of Eastern Ontario,Secondary,44.90144,-76.0173
680764,St. John Intermediate School,CDSB of Eastern Ontario,Elementary,44.88692,-76.2494
750646,St. John Paul II Catholic School,CDSB of Eastern Ontario,Elementary,45.44042,-75.2195
767431,St. Joseph Intermediate Catholic School,CDSB of Eastern Ontario,Elementary,45.03572,-74.7511
803065,St. Luke Catholic High School,CDSB of Eastern Ontario,Secondary,44.88672,-76.0209
818968,St. Luke Catholic School,CDSB of Eastern Ontario,Elementary,44.8865,-76.0206
814555,St. Mark Catholic School,CDSB of Eastern Ontario,Elementary,44.72303,-75.5147
765428,St. Matthew Catholic Elementary School,CDSB of Eastern Ontario,Elementary,45.03076,-74.7237
753670,St. Mother Teresa Catholic School,CDSB of Eastern Ontario,Elementary,45.26345,-75.3612
733067,St. Thomas Aquinas Catholic High School,CDSB of Eastern Ontario,Secondary,45.2514,-75.3531
773026,St. Thomas Aquinas Catholic School,CDSB of Eastern Ontario,Elementary,45.2511,-75.3537
428833,CHEO School,CHEO SA,Elementary,45.39904,-75.6534
023549,Académie Alexandre-Dumas,CS Viamonde,Elementary,43.74359,-79.2387
199761,Académie La Pinède,CS Viamonde,Elementary,44.28685,-79.8849
165468,Académie de la Moraine,CS Viamonde,Elementary,43.94962,-79.45641
165409,Académie de la Tamise,CS Viamonde,Elementary,42.99746,-81.2035
918997,Collège français secondaire,CS Viamonde,Secondary,43.66256,-79.3773
117382,Collège français élémentaire,CS Viamonde,Elementary,43.66221,-79.3777
165204,École intermédiaire Franco-Niagara,CS Viamonde,Elementary,42.98923,-79.2245
310415,École intermédiaire Ronald-Marion,CS Viamonde,Elementary,43.86,-79.0798
922089,École secondaire David Saint-Jacques,CS Viamonde,Secondary,43.43143,-80.4146
909858,École secondaire Franco-Jeunesse,CS Viamonde,Secondary,42.99473,-82.3511
907553,École secondaire Franco-Niagara,CS Viamonde,Secondary,42.98923,-79.2245
910554,École secondaire Gabriel-Dumont,CS Viamonde,Secondary,42.951777,-81.171631
914723,École secondaire Gaétan Gervais,CS Viamonde,Secondary,43.46057,-79.6935
907308,École secondaire Georges-P-Vanier,CS Viamonde,Secondary,43.26601,-79.8945
907642,École secondaire Jeunes sans frontières,CS Viamonde,Secondary,43.62401,-79.7588
934852,École secondaire Le Caron,CS Viamonde,Secondary,44.76085,-79.94
954651,École secondaire Michelle-O'Bonsawin,CS Viamonde,Secondary,43.68082989,-79.33047497
896889,École secondaire Norval-Morrisseau,CS Viamonde,Secondary,43.87773,-79.4413
925326,École secondaire Roméo Dallaire,CS Viamonde,Secondary,44.32609,-79.7158
901037,École secondaire Ronald-Marion,CS Viamonde,Secondary,43.86065,-79.0789
952803,École secondaire Toronto Ouest,CS Viamonde,Secondary,43.65334,-79.441
961008,École secondaire de Lamothe-Cadillac,CS Viamonde,Secondary,42.28921,-83.0469
907588,École secondaire Étienne-Brûlé,CS Viamonde,Secondary,43.75241,-79.3711
156167,École élémentaire Antonine Maillet,CS Viamonde,Elementary,43.90018,-78.8899
165441,École élémentaire Carrefour des Jeunes,CS Viamonde,Elementary,43.70714,-79.7719
393396,École élémentaire Chantal-Benoit,CS Viamonde,Elementary,44.10245,-79.4325
447621,École élémentaire Charles-Sauriol,CS Viamonde,Elementary,43.66801,-79.4557
474256,École élémentaire David-Saint-Jacques,CS Viamonde,Elementary,43.43142,-80.4146
342322,École élémentaire Dyane-Adam,CS Viamonde,Elementary,43.51839,-79.8787
532816,École élémentaire Franco-Jeunesse,CS Viamonde,Elementary,42.99457,-82.351
004367,École élémentaire Franco-Niagara,CS Viamonde,Elementary,42.97948,-79.2344
194069,École élémentaire Félix-Leclerc,CS Viamonde,Elementary,43.6899,-79.5615
165212,École élémentaire Gabriel-Dumont,CS Viamonde,Elementary,43.01557,-81.2324
497134,École élémentaire Gabrielle-Roy,CS Viamonde,Elementary,43.65656,-79.3721
572312,École élémentaire Gaetan-Gervais,CS Viamonde,Elementary,43.46053,-79.6934
156264,École élémentaire Georges-P-Vanier,CS Viamonde,Elementary,43.26602,-79.8945
165417,École élémentaire Horizon Jeunesse,CS Viamonde,Elementary,43.51673,-79.6448
282260,École élémentaire Jeanne-Lajoie,CS Viamonde,Elementary,43.73463,-79.3214
156183,École élémentaire Jeunes sans frontières,CS Viamonde,Elementary,43.62412,-79.7588
165395,École élémentaire L'Envolée,CS Viamonde,Elementary,42.31121,-83.0075
156256,École élémentaire L'Harmonie,CS Viamonde,Elementary,43.47168,-80.5079
419354,École élémentaire L'Héritage,CS Viamonde,Elementary,43.19588,-79.2492
165450,École élémentaire L'Odyssée,CS Viamonde,Elementary,43.56805,-80.262
302481,École élémentaire La Fontaine,CS Viamonde,Elementary,43.83457,-79.62107
019735,École élémentaire La Mosaïque,CS Viamonde,Elementary,43.68714,-79.3303
191313,École élémentaire La Pommeraie,CS Viamonde,Elementary,42.93211,-81.3054
032247,École élémentaire La Source,CS Viamonde,Elementary,44.35183,-79.6435
165000,École élémentaire LaMarsh,CS Viamonde,Elementary,43.10604,-79.0992
309192,École élémentaire Laure-Rièse,CS Viamonde,Elementary,43.82256,-79.27711
442869,École élémentaire Le Caron,CS Viamonde,Elementary,44.76133,-79.9393
539105,École élémentaire Le Flambeau,CS Viamonde,Elementary,43.63222,-79.7153
311090,École élémentaire Les Rapides,CS Viamonde,Elementary,42.99869,-82.3667
480785,École élémentaire Louise-Charron,CS Viamonde,Elementary,42.25373,-83.0332
010340,École élémentaire Marie-Curie,CS Viamonde,Elementary,42.9748,-81.3282
328910,École élémentaire Mathieu-da-Costa,CS Viamonde,Elementary,43.71809,-79.4755
157909,École élémentaire Micheline-Saint-Cyr,CS Viamonde,Elementary,43.58995,-79.544
590066,École élémentaire Michelle-O'Bonsawin,CS Viamonde,Elementary,43.68082989,-79.33047497
232544,École élémentaire Norval-Morrisseau,CS Viamonde,Elementary,43.87761,-79.4415
164941,École élémentaire Nouvel Horizon,CS Viamonde,Elementary,43.02148,-79.2768
619655,École élémentaire Patricia-Picknell,CS Viamonde,Elementary,43.41587,-79.6968
042108,École élémentaire Paul-Demers,CS Viamonde,Elementary,43.79168,-79.3673
165484,École élémentaire Pavillon de la jeunesse,CS Viamonde,Elementary,43.22656,-79.8241
165476,École élémentaire Pierre-Elliott-Trudeau,CS Viamonde,Elementary,43.65212,-79.4143
165425,École élémentaire Renaissance,CS Viamonde,Elementary,43.32084,-79.8075
412543,École élémentaire Roméo Dallaire,CS Viamonde,Elementary,44.32754,-79.7155
298133,École élémentaire Ronald-Marion,CS Viamonde,Elementary,43.86064,-79.0787
530476,École élémentaire Saint-Joseph,CS Viamonde,Elementary,44.7657,-79.936
588462,École élémentaire Toronto Ouest,CS Viamonde,Elementary,43.65334,-79.441
037753,École élémentaire Viola-Léger,CS Viamonde,Elementary,43.90695,-78.681
298572,École élémentaire de Lamothe-Cadillac,CS Viamonde,Elementary,42.28921,-83.0469
629646,École élémentaire des Quatre-Rivières,CS Viamonde,Elementary,43.90215,-80.1073
426502,École élémentaire du Chêne,CS Viamonde,Elementary,43.46057,-79.6935
186910,École élémentaire Étienne-Brûlé,CS Viamonde,Elementary,43.75241,-79.3711
705128,ÉIC Monseigneur-de-Charbonnel,CS catholique MonAvenir,Elementary,43.78616,-79.4234
766928,ÉIC Mère-Teresa,CS catholique MonAvenir,Elementary,43.21348,-79.8271
705497,ÉIC Nouvelle-Alliance,CS catholique MonAvenir,Elementary,44.3959,-79.716
849732,ÉIC Père-Philippe-Lamarche,CS catholique MonAvenir,Elementary,43.73928,-79.2408
750468,ÉIC Père-René-de-Galinée,CS catholique MonAvenir,Elementary,43.4245,-80.3817
739984,ÉIC Renaissance,CS catholique MonAvenir,Elementary,43.84723,-79.5042
704997,ÉIC Saint-Charles-Garnier,CS catholique MonAvenir,Elementary,43.9179,-78.9573
735092,ÉIC Saint-Frère-André,CS catholique MonAvenir,Elementary,43.6525,-79.4406
781231,ÉIC Saint-Jean-de-Brébeuf,CS catholique MonAvenir,Elementary,42.99257,-79.2814
772491,ÉIC Sainte-Famille,CS catholique MonAvenir,Elementary,43.61474,-79.7478
839486,ÉIC Sainte-Trinité,CS catholique MonAvenir,Elementary,43.43788,-79.7734
683922,ÉSAC Mère-Teresa,CS catholique MonAvenir,Secondary,43.2136,-79.828
780213,ÉSC Monseigneur-Jamot,CS catholique MonAvenir,Secondary,44.29227,-78.3661
733458,ÉSC Monseigneur-de-Charbonnel,CS catholique MonAvenir,Secondary,43.78625,-79.4234
740390,ÉSC Nouvelle-Alliance,CS catholique MonAvenir,Secondary,44.3958,-79.7159
854087,ÉSC Pape-François,CS catholique MonAvenir,Secondary,43.9678,-79.2545
846041,ÉSC Père-Philippe-Lamarche,CS catholique MonAvenir,Secondary,43.73929,-79.2408
751073,ÉSC Père-René-de-Galinée,CS catholique MonAvenir,Secondary,43.4243,-80.3817
705357,ÉSC Renaissance,CS catholique MonAvenir,Secondary,43.9583,-79.4838
706477,ÉSC Saint-Charles-Garnier,CS catholique MonAvenir,Secondary,43.9178,-78.9573
691950,ÉSC Saint-Frère-André,CS catholique MonAvenir,Secondary,43.65251,-79.4406
782017,ÉSC Saint-Jean-de-Brébeuf,CS catholique MonAvenir,Secondary,43.0106,-79.2335
790001,ÉSC Sainte-Famille,CS catholique MonAvenir,Secondary,43.61473,-79.7478
865368,ÉSC Sainte-Trinité,CS catholique MonAvenir,Secondary,43.43788,-79.7734
789369,ÉÉC Ange-Gabriel,CS catholique MonAvenir,Elementary,43.62,-79.75
694100,ÉÉC Cardinal-Léger,CS catholique MonAvenir,Elementary,43.40742,-80.4826
699764,ÉÉC Corpus-Christi,CS catholique MonAvenir,Elementary,43.88232,-78.8698
707910,ÉÉC Frère-André,CS catholique MonAvenir,Elementary,44.41354,-79.6828
707970,ÉÉC Georges-Étienne-Cartier,CS catholique MonAvenir,Elementary,43.67796,-79.3194
722510,ÉÉC Immaculée-Conception,CS catholique MonAvenir,Elementary,43.16401,-79.2412
837115,ÉÉC Jean-Béliveau,CS catholique MonAvenir,Elementary,44.10282,-79.4668
689705,ÉÉC Jean-Paul II,CS catholique MonAvenir,Elementary,43.87759,-78.9252
795917,ÉÉC Le-Petit-Prince,CS catholique MonAvenir,Elementary,43.85,-79.5246
705411,ÉÉC Marguerite-Bourgeois-Borden,CS catholique MonAvenir,Elementary,44.2863,-79.8833
733555,ÉÉC Monseigneur-Jamot,CS catholique MonAvenir,Elementary,44.29177,-78.3207
690007,ÉÉC Monseigneur-de-Laval,CS catholique MonAvenir,Elementary,43.2342,-79.8917
729949,ÉÉC Mère-Élisabeth-Bruyère,CS catholique MonAvenir,Elementary,43.4832,-80.5104
737330,ÉÉC Notre-Dame,CS catholique MonAvenir,Elementary,43.2419,-79.8361
732080,ÉÉC Notre-Dame-de-Grâce,CS catholique MonAvenir,Elementary,43.67967,-79.5593
828752,ÉÉC Notre-Dame-de-la-Huronie,CS catholique MonAvenir,Elementary,44.48358,-80.2119
738166,ÉÉC Notre-Dame-de-la-Jeunesse-Ajax,CS catholique MonAvenir,Elementary,43.85487,-79.0359
738190,ÉÉC Notre-Dame-de-la-Jeunesse-Niagara.F,CS catholique MonAvenir,Elementary,43.0684,-79.1026
773943,ÉÉC Pape-François,CS catholique MonAvenir,Elementary,43.9678,-79.2545
705330,ÉÉC René-Lamoureux,CS catholique MonAvenir,Elementary,43.60624,-79.6297
774642,ÉÉC Saint-Antoine,CS catholique MonAvenir,Elementary,43.10758,-79.0939
815640,ÉÉC Saint-François-d'Assise,CS catholique MonAvenir,Elementary,42.9808,-79.2313
802662,ÉÉC Saint-Jean,CS catholique MonAvenir,Elementary,44.0065,-79.4633
800490,ÉÉC Saint-Jean-Baptiste,CS catholique MonAvenir,Elementary,43.5428,-79.6671
788438,ÉÉC Saint-Jean-Bosco,CS catholique MonAvenir,Elementary,43.75088,-79.8176
798223,ÉÉC Saint-Jean-de-Lalande,CS catholique MonAvenir,Elementary,43.80499,-79.2639
810398,ÉÉC Saint-Joseph,CS catholique MonAvenir,Elementary,42.89329,-79.2351
819026,ÉÉC Saint-Louis,CS catholique MonAvenir,Elementary,44.78186,-79.9198
841308,ÉÉC Saint-Michel,CS catholique MonAvenir,Elementary,43.77756,-79.1573
694632,ÉÉC Saint-Nicolas,CS catholique MonAvenir,Elementary,43.52873,-79.8776
837180,ÉÉC Saint-Noël-Chabanel-Cambridge,CS catholique MonAvenir,Elementary,43.4042,-80.3401
845744,ÉÉC Saint-Noël-Chabanel-Toronto,CS catholique MonAvenir,Elementary,43.72447,-79.4946
842524,ÉÉC Saint-Philippe,CS catholique MonAvenir,Elementary,43.3233,-79.8241
848808,ÉÉC Saint-René-Goupil,CS catholique MonAvenir,Elementary,43.52225,-80.2435
779909,ÉÉC Sainte-Anne,CS catholique MonAvenir,Elementary,43.51934,-79.8434
861529,ÉÉC Sainte-Croix,CS catholique MonAvenir,Elementary,44.7588,-80.0502
690740,ÉÉC Sainte-Jeanne-d'Arc,CS catholique MonAvenir,Elementary,43.71064,-79.7365
862525,ÉÉC Sainte-Madeleine,CS catholique MonAvenir,Elementary,43.7626,-79.3227
730211,ÉÉC Sainte-Marguerite-Bourgeoys-Brantfrd,CS catholique MonAvenir,Elementary,43.1249,-80.2694
822671,ÉÉC Sainte-Marguerite-Bourgeoys-Markham,CS catholique MonAvenir,Elementary,43.86404,-79.3583
838632,ÉÉC Sainte-Marguerite-Bourgeoys-St.Cath,CS catholique MonAvenir,Elementary,43.13357,-79.2192
773557,ÉÉC Sainte-Marguerite-d'Youville,CS catholique MonAvenir,Elementary,43.63589,-79.5059
822000,ÉÉC Sainte-Marie-Oakville,CS catholique MonAvenir,Elementary,43.442,-79.6864
725714,ÉÉC Sainte-Marie-Simcoe,CS catholique MonAvenir,Elementary,42.83986,-80.3122
758965,ÉÉC Samuel-de-Champlain,CS catholique MonAvenir,Elementary,44.61549,-79.4364
760021,ÉÉC du Bon-Berger,CS catholique MonAvenir,Elementary,43.67257,-79.3368
861391,ÉÉC du Sacré-Coeur-Georgetown,CS catholique MonAvenir,Elementary,43.6309,-79.8875
755532,ÉÉC du Sacré-Coeur-Toronto,CS catholique MonAvenir,Elementary,43.66741,-79.4248
727270,ÉÉC du Sacré-Coeur-Welland,CS catholique MonAvenir,Elementary,42.995,-79.274
955622,École Cap sur l'Avenir,CS public du Grand Nord de l'Ontario,Secondary,46.49173,-80.9922
342432,École publique Camille-Perron,CS public du Grand Nord de l'Ontario,Elementary,46.49247,-80.5442
568961,École publique Foyer-Jeunesse,CS public du Grand Nord de l'Ontario,Elementary,46.65913,-80.9435
332100,École publique Franco-Manitou,CS public du Grand Nord de l'Ontario,Elementary,49.12511,-85.8341
460338,École publique Franco-Nord,CS public du Grand Nord de l'Ontario,Elementary,46.54672,-81.1034
242853,École publique Hanmer,CS public du Grand Nord de l'Ontario,Elementary,46.65914,-80.9435
157325,École publique Hélène-Gravel,CS public du Grand Nord de l'Ontario,Elementary,46.4612,-81.0264
408735,École publique Jean-Éthier-Blais,CS public du Grand Nord de l'Ontario,Elementary,46.52296,-80.9188
282898,École publique Jeanne-Sauvé,CS public du Grand Nord de l'Ontario,Elementary,46.48872,-80.9856
327425,École publique Macdonald-Cartier,CS public du Grand Nord de l'Ontario,Elementary,46.5216,-80.9884
164909,École publique Pavillon-de-l'Avenir,CS public du Grand Nord de l'Ontario,Elementary,46.57094,-81.1942
174882,École publique de la Découverte,CS public du Grand Nord de l'Ontario,Elementary,46.6107,-81.0014
138720,École publique de la Rivière-des-Français,CS public du Grand Nord de l'Ontario,Elementary,46.13138,-80.4334
045253,École publique des Pins Blancs,CS public du Grand Nord de l'Ontario,Elementary,46.186427066,-82.97426265
438992,École publique des Vents du Nord,CS public du Grand Nord de l'Ontario,Elementary,48.38444,-89.29084
164925,École publique des Villageois,CS public du Grand Nord de l'Ontario,Elementary,46.38039,-82.6603
025977,École publique l'Escalade,CS public du Grand Nord de l'Ontario,Elementary,47.98742,-84.7712
539197,École publique Écho-des-Rapides,CS public du Grand Nord de l'Ontario,Elementary,46.50601,-84.2907
912573,École secondaire Château-Jeunesse,CS public du Grand Nord de l'Ontario,Secondary,49.77619,-86.5267
924792,École secondaire Cité-Supérieure,CS public du Grand Nord de l'Ontario,Secondary,48.71794,-86.372
907448,École secondaire Hanmer,CS public du Grand Nord de l'Ontario,Secondary,46.65914,-80.9435
907570,École secondaire Macdonald-Cartier,CS public du Grand Nord de l'Ontario,Secondary,46.5216,-80.9884
965570,École secondaire Villa Française des Jeunes,CS public du Grand Nord de l'Ontario,Secondary,46.38058,-82.6604
911100,École secondaire de la Rivière-des-Français,CS public du Grand Nord de l'Ontario,Secondary,46.13144,-80.4334
890817,École secondaire l'Orée des Bois,CS public du Grand Nord de l'Ontario,Secondary,48.34862,-84.5477
067321,École publique Héritage,CS public du Nord-Est de l'Ontario,Elementary,46.32845,-79.4372
199737,École publique Jeunesse-Active,CS public du Nord-Est de l'Ontario,Elementary,46.372,-79.9409
165182,École publique Le Coeur du Nord,CS public du Nord-Est de l'Ontario,Elementary,49.4205,-82.4266
314242,École publique Lionel-Gauthier,CS public du Nord-Est de l'Ontario,Elementary,48.47749,-81.3802
469165,École publique Pavillon Renaissance,CS public du Nord-Est de l'Ontario,Elementary,48.4777,-81.3787
156230,École publique Étoile du Nord,CS public du Nord-Est de l'Ontario,Elementary,48.768,-80.6909
902306,École secondaire CANO,CS public du Nord-Est de l'Ontario,Secondary,49.42009,-82.42941
966753,École secondaire Passeport Jeunesse,CS public du Nord-Est de l'Ontario,Secondary,49.6839,-83.6658
922870,École secondaire Renaissance,CS public du Nord-Est de l'Ontario,Secondary,48.4776,-81.3788
918296,École secondaire l'Alliance,CS public du Nord-Est de l'Ontario,Secondary,48.7689,-80.682
919055,École secondaire publique Echo du Nord,CS public du Nord-Est de l'Ontario,Secondary,49.42065,-82.4345
946117,École secondaire publique Nipissing Ouest,CS public du Nord-Est de l'Ontario,Secondary,46.37393,-79.9203
909335,École secondaire publique Odyssée,CS public du Nord-Est de l'Ontario,Secondary,46.32885,-79.4352
922874,École secondaire publique aux Quatre-Vents,CS public du Nord-Est de l'Ontario,Secondary,45.361753,-80.03864
126258,École élémentaire publique Odyssée,CS public du Nord-Est de l'Ontario,Elementary,46.32886,-79.4353
111532,École élémentaire publique Passeport Jeunesse,CS public du Nord-Est de l'Ontario,Elementary,49.6839,-83.6658
544636,École élémentaire publique aux Quatre-Vents,CS public du Nord-Est de l'Ontario,Elementary,45.34469,-80.034
260926,École élémentaire publique des Navigateurs,CS public du Nord-Est de l'Ontario,Elementary,47.51564,-79.6735
848662,École Saint-Raymond,CSDC Franco-Nord,Elementary,46.28821,-79.443
685011,École secondaire catholique Algonquin,CSDC Franco-Nord,Secondary,46.31815,-79.4664
697605,École secondaire catholique Algonquin,CSDC Franco-Nord,Elementary,46.31807,-79.4662
710660,École secondaire catholique Franco-Cité,CSDC Franco-Nord,Secondary,46.37252,-79.9282
689730,École secondaire catholique Élisabeth-Bruyère,CSDC Franco-Nord,Elementary,46.31855,-78.7111
710504,École secondaire catholique Élisabeth-Bruyère,CSDC Franco-Nord,Secondary,46.3186,-78.7119
701580,École séparée Christ-Roi,CSDC Franco-Nord,Elementary,46.59173,-80.184
753068,École séparée La Résurrection,CSDC Franco-Nord,Elementary,46.36026,-79.9236
728101,École séparée Lorrain,CSDC Franco-Nord,Elementary,46.23632,-79.1459
730440,École séparée Mariale,CSDC Franco-Nord,Elementary,46.70041,-79.1039
854590,École séparée Saint-Thomas-D'Aquin,CSDC Franco-Nord,Elementary,46.18594,-79.2784
858366,École séparée Saint-Vincent,CSDC Franco-Nord,Elementary,46.31272,-79.4549
860441,École séparée Sainte-Anne,CSDC Franco-Nord,Elementary,46.3186,-78.7119
730335,École séparée Ste-Marguerite-d'Youville,CSDC Franco-Nord,Elementary,46.4102,-80.1184
781255,École élémentaire catholique Saint-Joseph,CSDC Franco-Nord,Elementary,46.37352,-79.9213
712592,École élémentaire catholique Saints-Anges,CSDC Franco-Nord,Elementary,46.3261,-79.4518
718815,École intermédiaire catholique - Pavillon Alexandria,CSDC de l'Est ontarien,Elementary,45.31608,-74.6365
804392,École intermédiaire catholique - Pavillon Casselman,CSDC de l'Est ontarien,Elementary,45.31615,-75.088
733228,École intermédiaire catholique - Pavillon Embrun,CSDC de l'Est ontarien,Elementary,45.27118,-75.2752
770396,École intermédiaire catholique - Pavillon Hawkesbury,CSDC de l'Est ontarien,Elementary,45.60615,-74.6252
767894,École intermédiaire catholique - Pavillon Plantagenet,CSDC de l'Est ontarien,Elementary,45.54734,-74.9992
728807,École intermédiaire catholique - Pavillon Rockland,CSDC de l'Est ontarien,Elementary,45.54897,-75.2863
723592,École intermédiaire catholique La Citadelle,CSDC de l'Est ontarien,Elementary,45.02508,-74.7145
704920,École secondaire catholique Embrun,CSDC de l'Est ontarien,Secondary,45.2718,-75.2747
728330,École secondaire catholique L'Escale,CSDC de l'Est ontarien,Secondary,45.54985,-75.2865
725684,École secondaire catholique La Citadelle,CSDC de l'Est ontarien,Secondary,45.02339,-74.7132
752908,École secondaire catholique Le Relais,CSDC de l'Est ontarien,Secondary,45.3161,-74.6348
695050,École secondaire catholique de Casselman,CSDC de l'Est ontarien,Secondary,45.31603,-75.0879
752720,École secondaire catholique de Plantagenet,CSDC de l'Est ontarien,Secondary,45.54564,-74.997
713740,École secondaire catholique régionale de Hawkesbury,CSDC de l'Est ontarien,Secondary,45.60621,-74.6252
705225,École élémentaire catholique Curé-Labrosse,CSDC de l'Est ontarien,Elementary,45.49969,-74.471
698202,École élémentaire catholique Du Rosaire,CSDC de l'Est ontarien,Elementary,45.49387,-75.1558
753297,École élémentaire catholique Elda-Rouleau,CSDC de l'Est ontarien,Elementary,45.30914,-74.6283
754102,École élémentaire catholique Embrun - Pav. Saint-Jean/Pav. La Croisée,CSDC de l'Est ontarien,Elementary,45.27658,-75.2725
725668,École élémentaire catholique La Source,CSDC de l'Est ontarien,Elementary,45.26802,-74.9651
861367,École élémentaire catholique Marie-Tanguay,CSDC de l'Est ontarien,Elementary,45.03619,-74.6966
737208,École élémentaire catholique Notre-Dame,CSDC de l'Est ontarien,Elementary,45.03414,-74.7513
707465,École élémentaire catholique Notre-Dame-du-Rosaire,CSDC de l'Est ontarien,Elementary,45.21575,-75.152
750034,École élémentaire catholique Paul VI,CSDC de l'Est ontarien,Elementary,45.60937,-74.6028
698075,École élémentaire catholique Sacré-Coeur,CSDC de l'Est ontarien,Elementary,45.43703,-75.1578
766321,École élémentaire catholique Saint-Albert,CSDC de l'Est ontarien,Elementary,45.25407,-75.1236
795186,École élémentaire catholique Saint-Grégoire,CSDC de l'Est ontarien,Elementary,45.52153,-74.6489
798304,École élémentaire catholique Saint-Isidore,CSDC de l'Est ontarien,Elementary,45.38432,-74.906
799998,École élémentaire catholique Saint-Jean-Baptiste,CSDC de l'Est ontarien,Elementary,45.61745,-74.692
753840,École élémentaire catholique Saint-Joseph (Russell),CSDC de l'Est ontarien,Elementary,45.2655,-75.3636
813257,École élémentaire catholique Saint-Joseph (Wendover),CSDC de l'Est ontarien,Elementary,45.57206,-75.1303
697680,École élémentaire catholique Saint-Mathieu,CSDC de l'Est ontarien,Elementary,45.44007,-75.2387
841595,École élémentaire catholique Saint-Paul,CSDC de l'Est ontarien,Elementary,45.53395,-74.9966
857327,École élémentaire catholique Saint-Viateur,CSDC de l'Est ontarien,Elementary,45.35018,-75.2632
857459,École élémentaire catholique Saint-Victor,CSDC de l'Est ontarien,Elementary,45.55761,-74.8803
697940,École élémentaire catholique Sainte-Félicité,CSDC de l'Est ontarien,Elementary,45.50916,-75.2186
699373,École élémentaire catholique Sainte-Lucie,CSDC de l'Est ontarien,Elementary,45.09181,-74.7906
863696,École élémentaire catholique Sainte-Trinité,CSDC de l'Est ontarien,Elementary,45.54776,-75.287
840947,École élémentaire catholique de Casselman - Pav. St-Paul/Ste-Euphémie,CSDC de l'Est ontarien,Elementary,45.31706,-75.0828
860443,École élémentaire catholique de l'Ange-Gardien,CSDC de l'Est ontarien,Elementary,45.24766,-74.5013
740225,Notre-Dame-des-Écoles,CSDC des Aurores boréales,Elementary,50.18022,-86.709
722421,École Immaculée-Conception,CSDC des Aurores boréales,Elementary,49.40547,-91.6604
738417,École Notre-Dame-de-Fatima,CSDC des Aurores boréales,Elementary,49.77944,-86.5324
808440,École St-Joseph,CSDC des Aurores boréales,Elementary,49.72841,-86.9453
787779,École catholique Franco-Supérieur,CSDC des Aurores boréales,Elementary,48.44072,-89.2147
821950,École catholique Franco-Terrace,CSDC des Aurores boréales,Elementary,48.78124,-87.1046
773778,École catholique Val-des-Bois,CSDC des Aurores boréales,Elementary,48.72265,-86.3708
860515,École catholique de La Vérendrye,CSDC des Aurores boréales,Elementary,48.444,-89.229
705708,École catholique de l'Enfant-Jésus,CSDC des Aurores boréales,Elementary,49.78851,-92.7565
805076,École catholique des Étoiles-du-Nord,CSDC des Aurores boréales,Elementary,51.01629,-93.8266
701718,École secondaire catholique de La Vérendrye,CSDC des Aurores boréales,Secondary,48.44435,-89.2294
686638,École catholique André-Cary,CSDC des Grandes Rivières,Elementary,49.42146,-82.4283
686760,École catholique Anicet-Morin,CSDC des Grandes Rivières,Elementary,48.47678,-81.3693
687677,École catholique Assomption (Earlton),CSDC des Grandes Rivières,Elementary,47.71193,-79.827
687936,École catholique Assomption (Kirkland Lake),CSDC des Grandes Rivières,Elementary,48.14827,-80.0278
815377,École catholique Cité des Jeunes,CSDC des Grandes Rivières,Elementary,49.4176,-82.4076
685186,École catholique Don-Bosco,CSDC des Grandes Rivières,Elementary,48.49922,-81.3472
707996,École catholique Georges-Vanier,CSDC des Grandes Rivières,Elementary,49.27859,-81.6231
723290,École catholique Jacques-Cartier (Kapuskasing),CSDC des Grandes Rivières,Elementary,49.40793,-82.4025
723169,École catholique Jacques-Cartier (Timmins),CSDC des Grandes Rivières,Elementary,48.48384,-81.3339
805580,École catholique Louis-Rhéaume,CSDC des Grandes Rivières,Elementary,48.48858,-81.3279
740322,École catholique Notre-Dame (Foleyet),CSDC des Grandes Rivières,Elementary,48.24229,-82.4376
736422,École catholique Notre-Dame-du-Rosaire (Gogama),CSDC des Grandes Rivières,Elementary,47.67464,-81.7251
724157,École catholique Nouveau Regard (Pavillon Jeunesse Nord),CSDC des Grandes Rivières,Secondary,49.071,-81.0134
807796,École catholique Nouveau Regard (Pavillon St-Joseph),CSDC des Grandes Rivières,Elementary,49.07082,-81.0142
798401,École catholique Pavillon Notre-Dame,CSDC des Grandes Rivières,Elementary,49.68565,-83.6671
705322,École catholique Sacré-Coeur (Timmins),CSDC des Grandes Rivières,Elementary,48.48736,-81.3418
835358,École catholique Saint-Michel,CSDC des Grandes Rivières,Elementary,47.54344,-79.6736
785466,École catholique Sainte-Croix,CSDC des Grandes Rivières,Elementary,47.44457,-79.6383
836152,École catholique Sainte-Marie,CSDC des Grandes Rivières,Elementary,47.51668708,-79.66014923
853291,École catholique Sainte-Thérèse,CSDC des Grandes Rivières,Elementary,48.43114,-80.3254
787124,École catholique St-Dominique,CSDC des Grandes Rivières,Elementary,48.47896,-81.3621
793108,École catholique St-François-Xavier,CSDC des Grandes Rivières,Elementary,49.60988,-83.262
794708,École catholique St-Gérard,CSDC des Grandes Rivières,Elementary,48.46382,-81.3328
815985,École catholique St-Jude,CSDC des Grandes Rivières,Elementary,48.49301,-81.1587
707309,École catholique St-Jules,CSDC des Grandes Rivières,Elementary,49.34428,-82.1532
819107,École catholique St-Louis (Hearst),CSDC des Grandes Rivières,Elementary,49.68592,-83.6681
860310,École catholique Ste-Anne,CSDC des Grandes Rivières,Elementary,49.69194,-83.6562
863823,École catholique Sts-Martyrs-Canadiens,CSDC des Grandes Rivières,Elementary,48.75517,-80.6899
862752,École catholique l’Envolée du Nord,CSDC des Grandes Rivières,Elementary,48.14874,-80.0306
698725,École secondaire catholique Cité des Jeunes,CSDC des Grandes Rivières,Secondary,49.41665,-82.4073
835005,École secondaire catholique Georges-Vanier,CSDC des Grandes Rivières,Secondary,49.27929,-81.6223
711110,École secondaire catholique Hearst,CSDC des Grandes Rivières,Secondary,49.68406,-83.6662
686085,École secondaire catholique L'Alliance,CSDC des Grandes Rivières,Secondary,48.76882,-80.6833
822507,École secondaire catholique Sainte-Marie,CSDC des Grandes Rivières,Secondary,47.51641,-79.6603
864650,École secondaire catholique Thériault,CSDC des Grandes Rivières,Secondary,48.48255,-81.3489
705020,École secondaire catholique l’Envolée du Nord,CSDC des Grandes Rivières,Secondary,48.1488,-80.0307
767978,École intermédiaire catholique Académie catholique Ange-Gabriel,CSDC du Centre-Est de l'Ontario,Elementary,44.6115,-75.7181
705276,École intermédiaire catholique Béatrice-Desloges,CSDC du Centre-Est de l'Ontario,Elementary,45.4686,-75.4594
752550,École intermédiaire catholique Franco-Cité,CSDC du Centre-Est de l'Ontario,Elementary,45.4005,-75.642
750107,École intermédiaire catholique Franco-Ouest,CSDC du Centre-Est de l'Ontario,Elementary,45.31553,-75.8327
752576,École intermédiaire catholique Garneau,CSDC du Centre-Est de l'Ontario,Elementary,45.4654,-75.525
696030,École intermédiaire catholique Jeanne-Lajoie,CSDC du Centre-Est de l'Ontario,Elementary,45.83532,-77.1503
752899,École intermédiaire catholique Mer Bleue,CSDC du Centre-Est de l'Ontario,Elementary,45.43591,-75.5028
685986,École intermédiaire catholique Paul-Desmarais,CSDC du Centre-Est de l'Ontario,Elementary,45.27385,-75.8969
718973,École intermédiaire catholique Pierre-Savard,CSDC du Centre-Est de l'Ontario,Elementary,45.27313,-75.7375
705241,École intermédiaire catholique Sainte-Marie-Rivier,CSDC du Centre-Est de l'Ontario,Elementary,44.247869421,-76.56118307
751120,École intermédiaire catholique Samuel-Genest,CSDC du Centre-Est de l'Ontario,Elementary,45.44244,-75.6288
855949,École secondaire catholique Ange-Gabriel,CSDC du Centre-Est de l'Ontario,Secondary,44.61169,-75.7182
705314,École secondaire catholique Béatrice-Desloges,CSDC du Centre-Est de l'Ontario,Secondary,45.4687,-75.4595
705233,École secondaire catholique Franco-Cité,CSDC du Centre-Est de l'Ontario,Secondary,45.40036,-75.6416
694827,École secondaire catholique Franco-Ouest,CSDC du Centre-Est de l'Ontario,Secondary,45.31553,-75.8327
710903,École secondaire catholique Garneau,CSDC du Centre-Est de l'Ontario,Secondary,45.46508,-75.5248
696021,École secondaire catholique Jeanne-Lajoie,CSDC du Centre-Est de l'Ontario,Secondary,45.83537,-77.1504
723409,École secondaire catholique L'Envol,CSDC du Centre-Est de l'Ontario,Secondary,44.110839,-77.555446
846435,École secondaire catholique Mer Bleue,CSDC du Centre-Est de l'Ontario,Secondary,45.43591,-75.5028
804005,École secondaire catholique Notre-Dame,CSDC du Centre-Est de l'Ontario,Secondary,45.00714,-75.6387
758231,École secondaire catholique Paul-Desmarais,CSDC du Centre-Est de l'Ontario,Secondary,45.27413,-75.8962
832670,École secondaire catholique Pierre-Savard,CSDC du Centre-Est de l'Ontario,Secondary,45.27313,-75.7375
750085,École secondaire catholique Sainte-Marie-Rivier,CSDC du Centre-Est de l'Ontario,Secondary,44.247869421,-76.56118307
695955,École secondaire catholique Samuel-Genest,CSDC du Centre-Est de l'Ontario,Secondary,45.44095,-75.6292
757618,École secondaire catholique d'apprentissage virtuel,CSDC du Centre-Est de l'Ontario,Secondary,45.41148,-75.71001
705373,École secondaire catholique de l’innovation,CSDC du Centre-Est de l'Ontario,Secondary,45.43699,-75.6339
735632,École élémentaire Académie catholique Ange-Gabriel,CSDC du Centre-Est de l'Ontario,Elementary,44.61215,-75.718
731385,École élémentaire catholique Alain-Fortin,CSDC du Centre-Est de l'Ontario,Elementary,45.44742,-75.4743
705047,École élémentaire catholique Arc-en-ciel,CSDC du Centre-Est de l'Ontario,Elementary,45.47205,-75.4704
866248,École élémentaire catholique Au Coeur d'Ottawa,CSDC du Centre-Est de l'Ontario,Elementary,45.41164,-75.6796
769765,École élémentaire catholique Bernard-Grandmaître,CSDC du Centre-Est de l'Ontario,Elementary,45.28494,-75.6821
705390,École élémentaire catholique De la Découverte,CSDC du Centre-Est de l'Ontario,Elementary,45.46363,-75.4672
741671,École élémentaire catholique Des  Voyageurs,CSDC du Centre-Est de l'Ontario,Elementary,45.47372,-75.5522
688091,École élémentaire catholique Des Deux-Rivières,CSDC du Centre-Est de l'Ontario,Elementary,45.42929,-76.3735
764264,École élémentaire catholique Des Pins,CSDC du Centre-Est de l'Ontario,Elementary,45.42192,-75.6053
703168,École élémentaire catholique Des Pionniers,CSDC du Centre-Est de l'Ontario,Elementary,45.47393,-75.4813
705055,École élémentaire catholique Elisabeth-Bruyère,CSDC du Centre-Est de l'Ontario,Elementary,45.28647,-75.8467
864730,École élémentaire catholique George-Étienne-Cartier,CSDC du Centre-Est de l'Ontario,Elementary,45.36354,-75.6721
701688,École élémentaire catholique Horizon-Jeunesse,CSDC du Centre-Est de l'Ontario,Elementary,45.43245,-75.6601
722901,École élémentaire catholique J.-L.-Couroux,CSDC du Centre-Est de l'Ontario,Elementary,45.1294,-76.1288
705136,École élémentaire catholique Jean-Robert-Gauthier,CSDC du Centre-Est de l'Ontario,Elementary,45.27008,-75.7323
696005,École élémentaire catholique Jeanne-Lajoie,CSDC du Centre-Est de l'Ontario,Elementary,45.83531,-77.1507
744957,École élémentaire catholique Jonathan-Pitre,CSDC du Centre-Est de l'Ontario,Elementary,45.2716,-75.6801
701670,École élémentaire catholique L'Envol,CSDC du Centre-Est de l'Ontario,Elementary,44.1099,-77.5524
865648,École élémentaire catholique L'Étoile-de-l'Est,CSDC du Centre-Est de l'Ontario,Elementary,45.45754,-75.5319
725536,École élémentaire catholique La Vérendrye,CSDC du Centre-Est de l'Ontario,Elementary,45.46041,-75.5976
734314,École élémentaire catholique Laurier-Carrière,CSDC du Centre-Est de l'Ontario,Elementary,45.35244,-75.7125
753157,École élémentaire catholique Marius-Barbeau,CSDC du Centre-Est de l'Ontario,Elementary,45.37166,-75.6566
705420,École élémentaire catholique Mgr-Rémi-Gaulin,CSDC du Centre-Est de l'Ontario,Elementary,44.26959,-76.4863
732397,École élémentaire catholique Montfort,CSDC du Centre-Est de l'Ontario,Elementary,45.44163,-75.6336
761251,École élémentaire catholique Notre-Dame,CSDC du Centre-Est de l'Ontario,Elementary,45.00714,-75.6387
735920,École élémentaire catholique Notre-Dame-des-Champs,CSDC du Centre-Est de l'Ontario,Elementary,45.43287,-75.5095
796656,École élémentaire catholique Notre-Place,CSDC du Centre-Est de l'Ontario,Elementary,45.44741,-75.4844
688762,École élémentaire catholique Pierre-Elliott-Trudeau,CSDC du Centre-Est de l'Ontario,Elementary,45.2853,-75.7445
705365,École élémentaire catholique Reine-des-Bois,CSDC du Centre-Est de l'Ontario,Elementary,45.47197,-75.5096
753203,École élémentaire catholique Roger-Saint-Denis,CSDC du Centre-Est de l'Ontario,Elementary,45.31128,-75.8823
793027,École élémentaire catholique Saint-François-d'Assise,CSDC du Centre-Est de l'Ontario,Elementary,45.40242,-75.7237
701971,École élémentaire catholique Saint-Guillaume,CSDC du Centre-Est de l'Ontario,Elementary,45.35568,-75.3537
156159,École élémentaire catholique Saint-Jean-Paul II,CSDC du Centre-Est de l'Ontario,Elementary,45.2693,-75.9045
703095,École élémentaire catholique Saint-Joseph d'Orléans,CSDC du Centre-Est de l'Ontario,Elementary,45.46574,-75.5214
752625,École élémentaire catholique Saint-Rémi,CSDC du Centre-Est de l'Ontario,Elementary,45.3278,-75.9235
860573,École élémentaire catholique Sainte-Anne,CSDC du Centre-Est de l'Ontario,Elementary,45.43258,-75.682
709387,École élémentaire catholique Sainte-Bernadette,CSDC du Centre-Est de l'Ontario,Elementary,45.35191,-75.6232
861871,École élémentaire catholique Sainte-Geneviève,CSDC du Centre-Est de l'Ontario,Elementary,45.38983,-75.6313
733402,École élémentaire catholique Sainte-Kateri,CSDC du Centre-Est de l'Ontario,Elementary,45.24559,-75.7367
730980,École élémentaire catholique Sainte-Marguerite-Bourgeoys,CSDC du Centre-Est de l'Ontario,Elementary,44.91404,-75.8414
709646,École élémentaire catholique Sainte-Marie,CSDC du Centre-Est de l'Ontario,Elementary,45.43201,-75.5663
740845,École élémentaire catholique Sainte-Thérèse-d'Avila,CSDC du Centre-Est de l'Ontario,Elementary,45.18171,-75.3553
861480,École élémentaire catholique Terre-des-Jeunes,CSDC du Centre-Est de l'Ontario,Elementary,45.35221,-75.7681
703753,École élémentaire catholique d'enseignement personnalisé La Source,CSDC du Centre-Est de l'Ontario,Elementary,45.47227,-75.5089
725633,École élémentaire catholique d'enseignement personnalisé Lamoureux,CSDC du Centre-Est de l'Ontario,Elementary,45.37266,-75.6713
786634,École élémentaire catholique d'enseignement personnalisé Édouard-Bond,CSDC du Centre-Est de l'Ontario,Elementary,45.36326,-75.7767
695483,Carrefour Options +,CSDC du Nouvel-Ontario,Secondary,46.51209,-80.9478
698989,Collège Notre-Dame,CSDC du Nouvel-Ontario,Secondary,46.4988,-80.993
707511,École secondaire Notre-Dame-du-Sault,CSDC du Nouvel-Ontario,Secondary,46.52319,-84.3301
696048,École secondaire catholique Champlain,CSDC du Nouvel-Ontario,Secondary,46.57246,-81.1995
705004,École secondaire catholique Jeunesse-Nord,CSDC du Nouvel-Ontario,Secondary,46.1852,-82.9649
755770,École secondaire catholique La Renaissance,CSDC du Nouvel-Ontario,Secondary,46.260253,-81.772933
701700,École secondaire catholique Saint-Joseph,CSDC du Nouvel-Ontario,Secondary,47.99678,-84.7835
704970,École secondaire catholique Trillium,CSDC du Nouvel-Ontario,Secondary,47.84111,-83.41
771473,École secondaire catholique l'Horizon,CSDC du Nouvel-Ontario,Secondary,46.59541,-81.0089
705110,École secondaire du Sacré-Coeur,CSDC du Nouvel-Ontario,Secondary,46.4998,-80.9889
871029,École élémentaire Alliance Saint-Joseph,CSDC du Nouvel-Ontario,Elementary,46.58498,-81.1981
737070,École élémentaire Notre-Dame,CSDC du Nouvel-Ontario,Elementary,46.65142,-80.9465
738506,École élémentaire Notre-Dame-de-la-Merci,CSDC du Nouvel-Ontario,Elementary,46.49427,-80.8503
774379,École élémentaire Notre-Dame-du-Sault,CSDC du Nouvel-Ontario,Elementary,46.53269,-84.3358
754757,École élémentaire Sacré-Coeur,CSDC du Nouvel-Ontario,Elementary,47.84527,-83.3921
717258,École élémentaire Saint Nom de Jésus,CSDC du Nouvel-Ontario,Elementary,49.21291,-84.7703
774480,École élémentaire Saint-Antoine,CSDC du Nouvel-Ontario,Elementary,46.13587,-80.4292
775169,École élémentaire Saint-Augustin,CSDC du Nouvel-Ontario,Elementary,46.55088,-80.8827
687022,École élémentaire Saint-Charles-Borromée,CSDC du Nouvel-Ontario,Elementary,46.3646,-80.4198
786470,École élémentaire Saint-Denis,CSDC du Nouvel-Ontario,Elementary,46.47845,-81.0069
787329,École élémentaire Saint-Dominique,CSDC du Nouvel-Ontario,Elementary,46.52546,-80.9226
761125,École élémentaire Saint-Joseph,CSDC du Nouvel-Ontario,Elementary,46.65001,-80.9932
806625,École élémentaire Saint-Joseph,CSDC du Nouvel-Ontario,Elementary,46.18605,-82.9519
809390,École élémentaire Saint-Joseph,CSDC du Nouvel-Ontario,Elementary,47.99216,-84.7776
811173,École élémentaire Saint-Joseph,CSDC du Nouvel-Ontario,Elementary,46.50331,-80.9947
811599,École élémentaire Saint-Joseph,CSDC du Nouvel-Ontario,Elementary,48.3505,-84.5524
705403,École élémentaire Saint-Paul,CSDC du Nouvel-Ontario,Elementary,46.43566,-81.1487
846449,École élémentaire Saint-Pierre,CSDC du Nouvel-Ontario,Elementary,46.48887,-80.9315
704962,École élémentaire Saint-Thomas,CSDC du Nouvel-Ontario,Elementary,46.44176,-80.3029
789607,École élémentaire Saint-Étienne,CSDC du Nouvel-Ontario,Elementary,46.59143,-81.3282
860700,École élémentaire Sainte-Anne,CSDC du Nouvel-Ontario,Elementary,46.19064,-82.3477
862886,École élémentaire Sainte-Marie,CSDC du Nouvel-Ontario,Elementary,46.5525,-81.1153
762946,École élémentaire Sainte-Thérèse,CSDC du Nouvel-Ontario,Elementary,46.65442,-81.0023
707449,École élémentaire catholique Félix-Ricard,CSDC du Nouvel-Ontario,Elementary,46.52156,-80.9687
738379,École élémentaire catholique Georges-Vanier,CSDC du Nouvel-Ontario,Elementary,46.38312,-82.66
705970,École élémentaire catholique Jean-Paul II,CSDC du Nouvel-Ontario,Elementary,46.60967,-81.0144
841490,École élémentaire catholique La Renaissance,CSDC du Nouvel-Ontario,Elementary,46.260253,-81.772933
750518,École élémentaire catholique Trillium,CSDC du Nouvel-Ontario,Elementary,47.84075,-83.4101
707015,École secondaire Pain Court,Conseil scolaire catholique Providence,Secondary,42.39176,-82.2941
704717,École secondaire catholique E.J.Lajeunesse,Conseil scolaire catholique Providence,Secondary,42.29009,-82.9443
708500,École secondaire catholique Monseigneur-Bruyère,Conseil scolaire catholique Providence,Secondary,43.015767,-81.232874
705438,École secondaire catholique Notre-Dame,Conseil scolaire catholique Providence,Secondary,43.1493,-80.7151
705101,École secondaire catholique Saint-Dominique-Savio,Conseil scolaire catholique Providence,Secondary,44.56422,-80.9251
791601,École secondaire catholique Saint-François-Xavier,Conseil scolaire catholique Providence,Secondary,42.99336,-82.3537
860919,École secondaire catholique Ste-Trinité,Conseil scolaire catholique Providence,Secondary,42.31371,-83.0365
728772,École secondaire catholique l'Essor,Conseil scolaire catholique Providence,Secondary,42.31441,-82.863
866569,École élémentaire catholique E.J. Lajeunesse,Conseil scolaire catholique Providence,Elementary,42.27687,-83.0208
707880,École élémentaire catholique Frère André,Conseil scolaire catholique Providence,Elementary,42.96323,-81.2789
708054,École élémentaire catholique Georges P Vanier,Conseil scolaire catholique Providence,Elementary,42.32452,-82.9593
732400,École élémentaire catholique Monseigneur Augustin Caron,Conseil scolaire catholique Providence,Elementary,42.20613,-83.0765
797359,École élémentaire catholique Monseigneur Jean Noël,Conseil scolaire catholique Providence,Elementary,42.25885,-83.0346
695025,École élémentaire catholique Monseigneur-Bruyère,Conseil scolaire catholique Providence,Elementary,43.01551,-81.2326
765865,École élémentaire catholique Notre-Dame,Conseil scolaire catholique Providence,Elementary,43.1493,-80.7151
705349,École élémentaire catholique Pavillon des Jeunes,Conseil scolaire catholique Providence,Elementary,42.28787,-82.7335
768138,École élémentaire catholique Saint-Ambroise,Conseil scolaire catholique Providence,Elementary,42.27229,-82.63581
774901,École élémentaire catholique Saint-Antoine,Conseil scolaire catholique Providence,Elementary,42.30149,-82.8844
787515,École élémentaire catholique Saint-Edmond,Conseil scolaire catholique Providence,Elementary,42.28933,-83.0473
791288,École élémentaire catholique Saint-Francis,Conseil scolaire catholique Providence,Elementary,42.25923,-82.4351
792187,École élémentaire catholique Saint-François-Xavier,Conseil scolaire catholique Providence,Elementary,42.99359,-82.3537
804150,École élémentaire catholique Saint-Jean-Baptiste,Conseil scolaire catholique Providence,Elementary,42.09782,-83.0985
715539,École élémentaire catholique Saint-Jean-de-Brébeuf,Conseil scolaire catholique Providence,Elementary,42.95817,-81.1761
832626,École élémentaire catholique Saint-Michel,Conseil scolaire catholique Providence,Elementary,42.04378,-82.5942
863009,École élémentaire catholique Saint-Paul,Conseil scolaire catholique Providence,Elementary,42.30625,-82.54787
845639,École élémentaire catholique Saint-Philippe,Conseil scolaire catholique Providence,Elementary,42.46257,-82.3183
855375,École élémentaire catholique Saint-Thomas-d'Aquin,Conseil scolaire catholique Providence,Elementary,42.99956,-82.3767
861170,École élémentaire catholique Sainte-Catherine,Conseil scolaire catholique Providence,Elementary,42.39183,-82.2917
730327,École élémentaire catholique Sainte-Marguerite-Bourgeoys,Conseil scolaire catholique Providence,Elementary,43.14222,-80.7516
822540,École élémentaire catholique Sainte-Marie,Conseil scolaire catholique Providence,Elementary,42.40038,-82.2282
863394,École élémentaire catholique Sainte-Thérèse,Conseil scolaire catholique Providence,Elementary,42.30812,-82.96
863726,École élémentaire catholique Sainte-Ursule,Conseil scolaire catholique Providence,Elementary,42.1449,-82.9682
728659,École élémentaire catholique St-Dominique-Savio,Conseil scolaire catholique Providence,Elementary,44.56424,-80.9251
701777,École élémentaire catholique Ste-Jeanne-d'Arc,Conseil scolaire catholique Providence,Elementary,43.02523,-81.2024
761907,École élémentaire catholique Ste-Marguerite-d'Youville,Conseil scolaire catholique Providence,Elementary,42.32098,-82.8742
822786,École élémentaire catholique l'Essor,Conseil scolaire catholique Providence,Elementary,42.3137,-82.864
069051,École intermédiaire Pierre-de-Blois,CÉP de l'Est de l'Ontario,Elementary,45.2627,-75.75915
616160,École intermédiaire Rivière-Rideau,CÉP de l'Est de l'Ontario,Elementary,44.98287,-75.5123
922609,École secondaire des adultes Le Carrefour,CÉP de l'Est de l'Ontario,Secondary,45.38126,-75.6264
907430,École secondaire publique De La Salle,CÉP de l'Est de l'Ontario,Secondary,45.43495,-75.6849
912662,École secondaire publique Gisèle-Lalonde,CÉP de l'Est de l'Ontario,Secondary,45.46873,-75.4453
898582,École secondaire publique L'Académie de la Seigneurie,CÉP de l'Est de l'Ontario,Secondary,45.30454,-75.0903
920550,École secondaire publique L'Alternative,CÉP de l'Est de l'Ontario,Secondary,45.35868,-75.79274
907464,École secondaire publique L'Héritage,CÉP de l'Est de l'Ontario,Secondary,45.01868,-74.7002
907480,École secondaire publique L'Équinoxe,CÉP de l'Est de l'Ontario,Secondary,45.82461,-77.1217
949540,École secondaire publique Le Sommet,CÉP de l'Est de l'Ontario,Secondary,45.60333,-74.5987
904945,École secondaire publique Louis-Riel,CÉP de l'Est de l'Ontario,Secondary,45.4411,-75.5716
901539,École secondaire publique Marc-Garneau,CÉP de l'Est de l'Ontario,Secondary,44.1137,-77.5546
930144,École secondaire publique Maurice-Lapointe,CÉP de l'Est de l'Ontario,Secondary,45.27875,-75.8587
907472,École secondaire publique Mille-Iles,CÉP de l'Est de l'Ontario,Secondary,44.24236,-76.5259
907421,École secondaire publique Omer-Deslauriers,CÉP de l'Est de l'Ontario,Secondary,45.35007,-75.7166
890139,École secondaire publique Pierre-de-Blois,CÉP de l'Est de l'Ontario,Secondary,45.26292,-75.75893
903237,École secondaire publique Rivière-Rideau,CÉP de l'Est de l'Ontario,Secondary,45.00845,-75.63774
488291,École élémentaire publique Carrefour Jeunesse,CÉP de l'Est de l'Ontario,Elementary,45.54392,-75.2882
412597,École élémentaire publique Charlotte Lemieux,CÉP de l'Est de l'Ontario,Elementary,45.36288,-75.7631
000230,École élémentaire publique Cité Jeunesse,CÉP de l'Est de l'Ontario,Elementary,44.11389,-77.5547
079839,École élémentaire publique De la Rivière Castor,CÉP de l'Est de l'Ontario,Elementary,45.27611,-75.2882
138681,École élémentaire publique De la Salle,CÉP de l'Est de l'Ontario,Elementary,45.43476,-75.6842
417726,École élémentaire publique Des Sentiers,CÉP de l'Est de l'Ontario,Elementary,45.4595,-75.4612
419796,École élémentaire publique Francojeunesse,CÉP de l'Est de l'Ontario,Elementary,45.42798,-75.6796
204986,École élémentaire publique Gabrielle-Roy,CÉP de l'Est de l'Ontario,Elementary,45.34868,-75.6347
215970,École élémentaire publique Gisèle-Lalonde,CÉP de l'Est de l'Ontario,Elementary,45.46867,-75.4452
287180,École élémentaire publique Grande-Ourse,CÉP de l'Est de l'Ontario,Elementary,45.3485,-75.9367
194239,École élémentaire publique Jeanne-Sauvé,CÉP de l'Est de l'Ontario,Elementary,45.46539,-75.4853
196502,École élémentaire publique L'Académie de la Seigneurie,CÉP de l'Est de l'Ontario,Elementary,45.30454,-75.09
302864,École élémentaire publique L'Héritage,CÉP de l'Est de l'Ontario,Elementary,45.01831,-74.6996
156108,École élémentaire publique L'Odyssée,CÉP de l'Est de l'Ontario,Elementary,45.46841,-75.536
439568,École élémentaire publique L'Équinoxe,CÉP de l'Est de l'Ontario,Elementary,45.82381,-77.1216
540030,École élémentaire publique Le Prélude,CÉP de l'Est de l'Ontario,Elementary,45.43751,-75.5301
313190,École élémentaire publique Le Sommet,CÉP de l'Est de l'Ontario,Elementary,45.60264,-74.5992
323187,École élémentaire publique Louis-Riel,CÉP de l'Est de l'Ontario,Elementary,45.4416,-75.5708
242420,École élémentaire publique Louise-Arbour,CÉP de l'Est de l'Ontario,Elementary,45.3992,-75.7151
384771,École élémentaire publique Madeleine-de-Roybon,CÉP de l'Est de l'Ontario,Elementary,44.24234,-76.5259
167811,École élémentaire publique Mamawi,CÉP de l'Est de l'Ontario,Elementary,45.33672,-75.7881
488550,École élémentaire publique Marc-Garneau,CÉP de l'Est de l'Ontario,Elementary,44.1134,-77.556
164852,École élémentaire publique Marie-Curie,CÉP de l'Est de l'Ontario,Elementary,45.38023115,-75.65430627
247352,École élémentaire publique Maurice-Lapointe,CÉP de l'Est de l'Ontario,Elementary,45.27875,-75.8587
156051,École élémentaire publique Mauril-Bélanger,CÉP de l'Est de l'Ontario,Elementary,45.43266,-75.6673
327445,École élémentaire publique Michaëlle-Jean,CÉP de l'Est de l'Ontario,Elementary,45.2882,-75.7263
530457,École élémentaire publique Michel-Dupuis,CÉP de l'Est de l'Ontario,Elementary,45.26721,-75.6932
064491,École élémentaire publique Mille-Iles,CÉP de l'Est de l'Ontario,Elementary,44.2425,-76.5259
250627,École élémentaire publique Nouvel Horizon,CÉP de l'Est de l'Ontario,Elementary,45.60632,-74.6013
156035,École élémentaire publique Omer-Deslauriers,CÉP de l'Est de l'Ontario,Elementary,45.3496,-75.7166
208944,École élémentaire publique Rivière-Rideau,CÉP de l'Est de l'Ontario,Elementary,45.00848,-75.6377
383392,École élémentaire publique Rose des Vents,CÉP de l'Est de l'Ontario,Elementary,45.03157,-74.6936
195774,École élémentaire publique Séraphin-Marion,CÉP de l'Est de l'Ontario,Elementary,45.4527,-75.5922
383376,École élémentaire publique Terre des Jeunes,CÉP de l'Est de l'Ontario,Elementary,45.306,-74.6314
559458,École élémentaire publique Trille des Bois,CÉP de l'Est de l'Ontario,Elementary,45.4397,-75.6706
000590,A K Wigg Public School,DSB Niagara,Elementary,43.03803,-79.2939
890200,A N Myer Secondary School,DSB Niagara,Secondary,43.12239,-79.1023
505005,Applewood Public School,DSB Niagara,Elementary,43.14727,-79.2028
070661,Burleigh Hill Public School,DSB Niagara,Elementary,43.13334,-79.2181
073784,Caistor Central Public School,DSB Niagara,Elementary,43.0752,-79.6525
084700,Carleton Public School,DSB Niagara,Elementary,43.18614,-79.213
094978,Central Public School,DSB Niagara,Elementary,43.19614,-79.5667
105767,Cherrywood Acres Public School,DSB Niagara,Elementary,43.10616,-79.1063
121754,Connaught Public School,DSB Niagara,Elementary,43.16449,-79.2288
235750,Crossroads Public School,DSB Niagara,Elementary,43.2164,-79.1303
547449,DSBN Academy,DSB Niagara,Elementary,43.1384,-79.2573
935455,DSBN Academy,DSB Niagara,Secondary,43.1384,-79.2573
131890,Dalewood Public School,DSB Niagara,Elementary,43.20193,-79.2398
139823,DeWitt Carter Public School,DSB Niagara,Elementary,42.8905,-79.2445
001793,Diamond Trail Public School,DSB Niagara,Elementary,42.97307,-79.2355
156418,E I McCulley Public School,DSB Niagara,Elementary,43.18333,-79.2084
906328,E L Crossley Secondary School,DSB Niagara,Secondary,43.0418,-79.3177
906972,Eastdale Secondary School,DSB Niagara,Secondary,42.9871,-79.2252
907677,Eden High School,DSB Niagara,Secondary,43.19101,-79.2531
165956,Edith Cavell Public School,DSB Niagara,Elementary,43.14763,-79.2496
195596,Ferndale Public School,DSB Niagara,Elementary,43.15037,-79.2117
197416,Fitch Street Public School,DSB Niagara,Elementary,42.9952,-79.2623
326785,Forestview Public School,DSB Niagara,Elementary,43.08316,-79.1375
207810,Gainsborough Central Public School,DSB Niagara,Elementary,43.04189,-79.5
210358,Garrison Road Public School,DSB Niagara,Elementary,42.90534,-78.9569
218600,Glendale Public School,DSB Niagara,Elementary,43.00777,-79.2554
201138,Glynn A Green Public School,DSB Niagara,Elementary,43.03973,-79.2846
221856,Gordon Public School,DSB Niagara,Elementary,43.00448,-79.2788
914010,Governor Simcoe Secondary School,DSB Niagara,Secondary,43.20257,-79.234
225754,Gracefield Public School,DSB Niagara,Elementary,43.1955,-79.2815
226556,Grand Avenue Public School,DSB Niagara,Elementary,43.19201,-79.5271
228010,Grapeview Public School,DSB Niagara,Elementary,43.1646,-79.2756
897646,Greater Fort Erie Secondary School,DSB Niagara,Secondary,42.90283,-78.9779
229520,Greendale Public School,DSB Niagara,Elementary,43.09423,-79.1225
294037,Harriet Tubman Public School,DSB Niagara,Elementary,43.16866,-79.2484
254223,Heximer Avenue Public School,DSB Niagara,Elementary,43.0773,-79.1005
281000,Jacob Beam Public School,DSB Niagara,Elementary,43.1656,-79.4792
281654,James Morden Public School,DSB Niagara,Elementary,43.07239,-79.1093
264237,Jeanne Sauve Public School,DSB Niagara,Elementary,43.16133,-79.2111
001649,John Brant Public School,DSB Niagara,Elementary,42.87863,-79.0522
283991,John Marshall Public School,DSB Niagara,Elementary,43.11665,-79.1026
287660,Kate S Durdan Public School,DSB Niagara,Elementary,43.0754,-79.137
304921,Lakeview Public School,DSB Niagara,Elementary,43.201,-79.5616
921750,Laura Secord Secondary School,DSB Niagara,Secondary,43.1838,-79.2262
922854,Lifetime Learning Centre Secondary School,DSB Niagara,Secondary,43.1922,-79.2529
313114,Lincoln Centennial Public School,DSB Niagara,Elementary,43.18672,-79.2335
318086,Lockview Public School,DSB Niagara,Elementary,43.1995,-79.2117
344834,Martha Cullimore Public School,DSB Niagara,Elementary,43.1267,-79.1059
352500,McKay Public School,DSB Niagara,Elementary,42.89113,-79.2578
382868,Nelles Public School,DSB Niagara,Elementary,43.1883,-79.5512
414514,Oakridge Public School,DSB Niagara,Elementary,43.13692,-79.243
414905,Oakwood Public School,DSB Niagara,Elementary,42.90109,-79.2632
417521,Ontario Public School,DSB Niagara,Elementary,43.09308,-79.1986
419320,Orchard Park Public School,DSB Niagara,Elementary,43.11919,-79.1127
433357,Park Public School,DSB Niagara,Elementary,43.1862,-79.5346
436747,Parnall Public School,DSB Niagara,Elementary,43.1946,-79.2428
557773,Peace Bridge Public School,DSB Niagara,Elementary,42.91472,-78.925
514780,Pine Grove Public School,DSB Niagara,Elementary,43.2035,-79.2518
449350,Plymouth Public School,DSB Niagara,Elementary,42.9828,-79.245
935700,Port Colborne High School,DSB Niagara,Secondary,42.8887,-79.2585
451568,Port Weller Public School,DSB Niagara,Elementary,43.2139,-79.2147
452084,Power Glen School,DSB Niagara,Elementary,43.1301,-79.2658
455989,Prince Philip Public School,DSB Niagara,Elementary,43.2066,-79.2311
456110,Prince Philip Public School,DSB Niagara,Elementary,43.1268,-79.1109
455075,Prince of Wales Public School,DSB Niagara,Elementary,43.1775,-79.222
455202,Prince of Wales Public School,DSB Niagara,Elementary,43.12244,-79.2026
457540,Princess Elizabeth Public School,DSB Niagara,Elementary,42.98509,-79.2326
458066,Princess Margaret Public School,DSB Niagara,Elementary,43.08499,-79.1049
461415,Quaker Road Public School,DSB Niagara,Elementary,43.0216,-79.2616
483117,Richmond Street Public School,DSB Niagara,Elementary,43.11686,-79.2144
485365,River View Public School,DSB Niagara,Elementary,43.05524,-79.0424
491861,Ross Public School,DSB Niagara,Elementary,43.0006,-79.2522
505382,Senator Gibson Public School,DSB Niagara,Elementary,43.17094,-79.4727
514748,Simcoe Street Public School,DSB Niagara,Elementary,43.10222,-79.072
942464,Sir Winston Churchill Secondary School,DSB Niagara,Secondary,43.1412,-79.2309
517453,Smith Public School,DSB Niagara,Elementary,43.20636,-79.6141
117722,Smithville Public School,DSB Niagara,Elementary,43.09885,-79.5442
944157,St Catharines Collegiate Institute and Vocational School,DSB Niagara,Secondary,43.1668,-79.2452
529648,St Davids Public School,DSB Niagara,Elementary,43.1587,-79.1068
945064,Stamford Collegiate,DSB Niagara,Secondary,43.0907,-79.0983
535419,Steele Street Public School,DSB Niagara,Elementary,42.8852,-79.2605
536636,Stevensville Public School,DSB Niagara,Elementary,42.9437,-79.0477
948055,Thorold Secondary School,DSB Niagara,Secondary,43.12904,-79.1988
254519,Twenty Valley Public School,DSB Niagara,Elementary,43.15851,-79.3919
569348,Valley Way Public School,DSB Niagara,Elementary,43.10193,-79.0821
573507,Victoria Public School,DSB Niagara,Elementary,43.12898,-79.09
947180,Welland Centennial Secondary School,DSB Niagara,Secondary,43.0048,-79.267
156841,Wellington Heights Public School,DSB Niagara,Elementary,43.02813,-79.3564
951561,West Niagara Secondary School,DSB Niagara,Secondary,43.18368,-79.512664
598984,Westdale Public School,DSB Niagara,Elementary,43.13943,-79.2618
952214,Westlane Secondary School,DSB Niagara,Secondary,43.0875,-79.1316
602493,Westmount Public School,DSB Niagara,Elementary,43.12625,-79.2115
510530,William Hamilton Merritt Public School,DSB Niagara,Elementary,43.18828,-79.2566
618870,Woodland Public School,DSB Niagara,Elementary,43.1756,-79.3091
045578,Bertha Shaw Public School,DSB Ontario North East,Elementary,48.48284,-81.2095
097969,Central School,DSB Ontario North East,Elementary,48.15173,-80.0296
252018,Clayton Brown Public School,DSB Ontario North East,Elementary,49.68727,-83.6673
902292,Cochrane High School,DSB Ontario North East,Secondary,49.07518,-81.019
114073,Cochrane Public School,DSB Ontario North East,Elementary,49.07481,-81.0189
140210,Diamond Jubilee Public School,DSB Ontario North East,Elementary,49.42065,-82.4345
282170,Elk Lake Public School,DSB Ontario North East,Elementary,47.73241,-80.3377
908924,Englehart High School,DSB Ontario North East,Secondary,47.82308,-79.8731
181552,Englehart Public School,DSB Ontario North East,Elementary,47.82139,-79.8706
619738,Englehart Secondary School (Elementary),DSB Ontario North East,Elementary,47.82078,-79.8753
193771,Federal Public School,DSB Ontario North East,Elementary,48.16018,-80.0299
221554,Golden Avenue Public School,DSB Ontario North East,Elementary,48.47741,-81.2118
916293,Hearst High School,DSB Ontario North East,Secondary,49.68741,-83.6677
076104,Iroquois Falls Public School,DSB Ontario North East,Elementary,48.76252,-80.6898
918288,Iroquois Falls Secondary School,DSB Ontario North East,Secondary,48.76882,-80.6833
600222,Iroquois Falls Secondary School (Elementary),DSB Ontario North East,Elementary,48.7685,-80.6821
347957,Joseph H Kennedy Public School,DSB Ontario North East,Elementary,48.53562,-80.4633
919063,Kapuskasing District High School,DSB Ontario North East,Secondary,49.42065,-82.4345
291048,Kerns Public School,DSB Ontario North East,Elementary,47.66674,-79.7498
296600,Kirkland Lake District Composite Elementary School,DSB Ontario North East,Elementary,48.14911,-80.0209
920363,Kirkland Lake District Composite Secondary School,DSB Ontario North East,Secondary,48.18484,-80.0208
384224,New Liskeard Public School,DSB Ontario North East,Elementary,47.51159,-79.6769
933287,PACE,DSB Ontario North East,Secondary,48.47482,-81.3294
445061,Pinecrest Public School,DSB Ontario North East,Elementary,48.48786,-81.3175
468371,R Ross Beattie Senior Public School,DSB Ontario North East,Elementary,48.4813,-81.3453
943509,Roland Michener Secondary School,DSB Ontario North East,Secondary,48.4826,-81.2137
428797,Roland Michener Secondary School (Elementary),DSB Ontario North East,Elementary,48.4826,-81.2137
502030,Schumacher Public School,DSB Ontario North East,Elementary,48.47474,-81.2969
519294,Smooth Rock Falls Public School,DSB Ontario North East,Elementary,49.27731,-81.6342
550809,Temagami Public School,DSB Ontario North East,Elementary,47.06779,-79.789
946940,Timiskaming District Secondary School,DSB Ontario North East,Secondary,47.51151,-79.6796
050571,Timiskaming District Secondary School (Elementary),DSB Ontario North East,Elementary,47.51151,-79.6796
270291,Timmins Centennial Public School,DSB Ontario North East,Elementary,48.46426,-81.3376
948578,Timmins High and Vocational School,DSB Ontario North East,Secondary,48.48595,-81.3499
361747,W Earle Miller Public School,DSB Ontario North East,Elementary,48.49205,-81.3416
685461,All Saints Catholic School,Dufferin-Peel CDSB,Elementary,43.53156,-79.7106
687308,Ascension of Our Lord Secondary School,Dufferin-Peel CDSB,Secondary,43.72338,-79.6535
689556,Bishop Francis Allen Catholic School,Dufferin-Peel CDSB,Elementary,43.66624,-79.7462
706418,Blessed Michael J. McGivney Catholic Elementary School,Dufferin-Peel CDSB,Elementary,43.7529,-79.7679
693715,Canadian Martyrs School,Dufferin-Peel CDSB,Elementary,43.59904,-79.6219
749813,Cardinal Ambrozic Catholic Secondary School,Dufferin-Peel CDSB,Secondary,43.78772,-79.6831
850888,Cardinal Leger Secondary School,Dufferin-Peel CDSB,Secondary,43.68409,-79.7505
697095,Christ The King Catholic School,Dufferin-Peel CDSB,Elementary,43.52396,-79.695
701807,Corpus Christi School,Dufferin-Peel CDSB,Elementary,43.5848,-79.6522
703222,Divine Mercy School,Dufferin-Peel CDSB,Elementary,43.55954,-79.7238
696307,Father C W Sullivan Catholic School,Dufferin-Peel CDSB,Elementary,43.70595,-79.7466
706337,Father Clair Tipping School,Dufferin-Peel CDSB,Elementary,43.76465,-79.7314
857238,Father Daniel Zanon Elementary School,Dufferin-Peel CDSB,Elementary,43.57306,-79.6309
730441,Father Francis McSpiritt Catholic Elementary School,Dufferin-Peel CDSB,Elementary,43.7751,-79.6981
706957,Father Michael Goetz Secondary School,Dufferin-Peel CDSB,Secondary,43.58188,-79.6358
708038,Georges Vanier Catholic School,Dufferin-Peel CDSB,Elementary,43.72731,-79.7111
708070,Good Shepherd Catholic Elementary School,Dufferin-Peel CDSB,Elementary,43.75604,-79.7463
708143,Guardian Angels Catholic Elementary School,Dufferin-Peel CDSB,Elementary,43.6868,-79.8196
714909,Holy Cross School,Dufferin-Peel CDSB,Elementary,43.72491,-79.6363
716405,Holy Family School,Dufferin-Peel CDSB,Elementary,43.87366,-79.7261
718114,Holy Name of Mary Secondary School,Dufferin-Peel CDSB,Secondary,43.7338,-79.7167
819219,Holy Spirit Catholic Elementary School,Dufferin-Peel CDSB,Elementary,43.78429,-79.7292
722790,Iona Secondary School,Dufferin-Peel CDSB,Secondary,43.52055,-79.6472
724564,John Cabot Catholic Secondary School,Dufferin-Peel CDSB,Secondary,43.61262,-79.6208
726494,Lester B Pearson Catholic School,Dufferin-Peel CDSB,Elementary,43.72301,-79.7293
798118,Loyola Catholic Secondary School,Dufferin-Peel CDSB,Secondary,43.52648,-79.7129
730742,Mary Fix Catholic School,Dufferin-Peel CDSB,Elementary,43.56702,-79.6239
731447,Metropolitan Andrei Catholic School,Dufferin-Peel CDSB,Elementary,43.59246,-79.613
690694,Notre Dame Catholic Secondary School,Dufferin-Peel CDSB,Secondary,43.71943,-79.7793
742171,Our Lady of Fatima School,Dufferin-Peel CDSB,Elementary,43.68807,-79.7775
742821,Our Lady of Good Voyage Catholic School,Dufferin-Peel CDSB,Elementary,43.5914,-79.7108
782606,Our Lady of Lourdes Catholic Elementary School,Dufferin-Peel CDSB,Elementary,43.79178,-79.7472
747440,Our Lady of Mercy Elementary School,Dufferin-Peel CDSB,Elementary,43.56934,-79.733
742333,Our Lady of Mount Carmel Secondary School,Dufferin-Peel CDSB,Secondary,43.57465,-79.7719
749087,Our Lady of Peace School,Dufferin-Peel CDSB,Elementary,43.67388,-79.7848
747882,Our Lady of Providence Elementary School,Dufferin-Peel CDSB,Elementary,43.7438,-79.7597
750042,Pauline Vanier Catholic Elementary School,Dufferin-Peel CDSB,Elementary,43.64647,-79.7342
751430,Philip Pocock Catholic Secondary School,Dufferin-Peel CDSB,Secondary,43.62485,-79.6258
752029,Queen of Heaven School,Dufferin-Peel CDSB,Elementary,43.57798,-79.5666
753211,Robert F Hall Catholic Secondary School,Dufferin-Peel CDSB,Secondary,43.87401,-79.862
867942,Sacred Heart Separate School,Dufferin-Peel CDSB,Elementary,43.73354,-79.7987
759481,San Lorenzo Ruiz Elementary School,Dufferin-Peel CDSB,Elementary,43.61777,-79.6636
770434,St Agnes Separate School,Dufferin-Peel CDSB,Elementary,43.72463,-79.7804
766364,St Albert of Jerusalem Elementary School,Dufferin-Peel CDSB,Elementary,43.58028,-79.7892
759562,St Alfred School,Dufferin-Peel CDSB,Elementary,43.61859,-79.5893
767255,St Aloysius Gonzaga Secondary School,Dufferin-Peel CDSB,Secondary,43.55635,-79.7173
772496,St Andrew School,Dufferin-Peel CDSB,Elementary,43.91892,-80.1171
770620,St Angela Merici Catholic Elementary School,Dufferin-Peel CDSB,Elementary,43.69536,-79.8106
771759,St Anne Separate School,Dufferin-Peel CDSB,Elementary,43.69927,-79.7632
773530,St Anthony School,Dufferin-Peel CDSB,Elementary,43.73602,-79.7415
775606,St Augustine Secondary School,Dufferin-Peel CDSB,Secondary,43.65807,-79.7646
776092,St Basil School,Dufferin-Peel CDSB,Elementary,43.6232,-79.6126
776742,St Benedict Elementary School,Dufferin-Peel CDSB,Elementary,43.93045,-80.116
777528,St Bernadette Elementary School,Dufferin-Peel CDSB,Elementary,43.58163,-79.673
780804,St Brigid School,Dufferin-Peel CDSB,Elementary,43.65816,-79.7593
781401,St Catherine of Siena School,Dufferin-Peel CDSB,Elementary,43.57434,-79.6093
781819,St Cecilia Elementary School,Dufferin-Peel CDSB,Elementary,43.70438,-79.78
783870,St Christopher School,Dufferin-Peel CDSB,Elementary,43.52178,-79.6262
784290,St Clare School,Dufferin-Peel CDSB,Elementary,43.54534,-79.6961
785393,St Cornelius School,Dufferin-Peel CDSB,Elementary,43.89218,-79.8746
785997,St David of Wales Separate School,Dufferin-Peel CDSB,Elementary,43.57482,-79.666
786730,St Dominic Separate School,Dufferin-Peel CDSB,Elementary,43.57334,-79.5794
690031,St Edith Stein Elementary School,Dufferin-Peel CDSB,Elementary,43.56624,-79.7586
788511,St Edmund Campion Secondary School,Dufferin-Peel CDSB,Secondary,43.69426,-79.8301
787647,St Edmund Separate School,Dufferin-Peel CDSB,Elementary,43.59861,-79.5767
789143,St Elizabeth Seton School,Dufferin-Peel CDSB,Elementary,43.57746,-79.7406
789763,St Faustina Elementary School,Dufferin-Peel CDSB,Elementary,43.55689,-79.7504
792586,St Francis Xavier Elementary School,Dufferin-Peel CDSB,Elementary,43.67445,-79.7381
792594,St Francis Xavier Secondary School,Dufferin-Peel CDSB,Secondary,43.61252,-79.6638
792020,St Francis of Assisi School,Dufferin-Peel CDSB,Elementary,43.52637,-79.6717
794791,St Gerard Separate School,Dufferin-Peel CDSB,Elementary,43.55864,-79.6562
795852,St Gregory School,Dufferin-Peel CDSB,Elementary,43.60917,-79.7074
796468,St Helen Separate School,Dufferin-Peel CDSB,Elementary,43.50587,-79.6509
797316,St Herbert School,Dufferin-Peel CDSB,Elementary,43.58592,-79.6847
797278,St Hilary Elementary School,Dufferin-Peel CDSB,Elementary,43.60373,-79.6607
798274,St Isaac Jogues Elementary School,Dufferin-Peel CDSB,Elementary,43.73608,-79.7695
800465,St Jean Brebeuf Separate School,Dufferin-Peel CDSB,Elementary,43.73397,-79.7243
801100,St Jerome Separate School,Dufferin-Peel CDSB,Elementary,43.55912,-79.6302
801178,St Joachim Separate School,Dufferin-Peel CDSB,Elementary,43.71302,-79.7667
690708,St John Bosco School,Dufferin-Peel CDSB,Elementary,43.74193,-79.7327
803502,St John Fisher Separate School,Dufferin-Peel CDSB,Elementary,43.71031,-79.7116
801577,St John of the Cross School,Dufferin-Peel CDSB,Elementary,43.57904,-79.7678
680435,St John the Baptist Elementary School,Dufferin-Peel CDSB,Elementary,43.87083,-79.7125
806889,St Joseph School,Dufferin-Peel CDSB,Elementary,43.67689,-79.7787
806919,St Joseph Secondary School,Dufferin-Peel CDSB,Secondary,43.58967,-79.6993
811041,St Joseph Separate School,Dufferin-Peel CDSB,Elementary,43.58127,-79.7096
816396,St Jude School,Dufferin-Peel CDSB,Elementary,43.61332,-79.6521
800007,St Julia Catholic Elementary School,Dufferin-Peel CDSB,Elementary,43.62032,-79.7236
816906,St Kevin School,Dufferin-Peel CDSB,Elementary,43.66059,-79.7314
818500,St Leonard School,Dufferin-Peel CDSB,Elementary,43.72315,-79.7903
819883,St Louis School,Dufferin-Peel CDSB,Elementary,43.51577,-79.6454
819433,St Luke Catholic Elementary School,Dufferin-Peel CDSB,Elementary,43.54662,-79.6054
821381,St Marcellinus Secondary School,Dufferin-Peel CDSB,Secondary,43.62414,-79.7102
750298,St Margaret of Scotland School,Dufferin-Peel CDSB,Elementary,43.53604,-79.6759
822639,St Marguerite Bourgeoys Separate School,Dufferin-Peel CDSB,Elementary,43.72742,-79.7535
822655,St Marguerite d'Youville Secondary School,Dufferin-Peel CDSB,Secondary,43.75223,-79.7753
821365,St Maria Goretti Elementary School,Dufferin-Peel CDSB,Elementary,43.69618,-79.7886
823090,St Mark Separate School,Dufferin-Peel CDSB,Elementary,43.55134,-79.6796
823953,St Martin Secondary School,Dufferin-Peel CDSB,Secondary,43.55662,-79.6356
824950,St Mary Elementary School,Dufferin-Peel CDSB,Elementary,43.68369,-79.7541
832308,St Matthew Separate School,Dufferin-Peel CDSB,Elementary,43.59974,-79.6558
835536,St Monica Elementary School,Dufferin-Peel CDSB,Elementary,43.66467,-79.7717
836036,St Nicholas Elementary School,Dufferin-Peel CDSB,Elementary,43.87136,-79.7591
839256,St Patrick School,Dufferin-Peel CDSB,Elementary,43.81737,-79.7264
841730,St Paul Secondary School,Dufferin-Peel CDSB,Secondary,43.5773,-79.5709
843547,St Peter Separate School,Dufferin-Peel CDSB,Elementary,43.91204,-80.1035
845779,St Philip Elementary School,Dufferin-Peel CDSB,Elementary,43.57872,-79.6323
846473,St Pio of Pietrelcina Elementary School,Dufferin-Peel CDSB,Elementary,43.60822,-79.6427
847933,St Raphael School,Dufferin-Peel CDSB,Elementary,43.72101,-79.6456
848751,St Raymond Elementary School,Dufferin-Peel CDSB,Elementary,43.59489,-79.7016
848930,St Richard School,Dufferin-Peel CDSB,Elementary,43.59353,-79.7701
849286,St Rita Elementary School,Dufferin-Peel CDSB,Elementary,43.73722,-79.8244
850071,St Rose of Lima Separate School,Dufferin-Peel CDSB,Elementary,43.56093,-79.6985
850217,St Sebastian Catholic Elementary School,Dufferin-Peel CDSB,Elementary,43.5409,-79.7223
850365,St Simon Stock Elementary School,Dufferin-Peel CDSB,Elementary,43.56558,-79.7701
850403,St Sofia School,Dufferin-Peel CDSB,Elementary,43.62159,-79.596
851000,St Stephen Separate School,Dufferin-Peel CDSB,Elementary,43.72801,-79.8152
851299,St Teresa of Avila Separate School,Dufferin-Peel CDSB,Elementary,43.59096,-79.7512
852651,St Therese of the Child Jesus (Elementary) Separate School,Dufferin-Peel CDSB,Elementary,43.57943,-79.7773
854530,St Thomas Aquinas Secondary School,Dufferin-Peel CDSB,Secondary,43.73869,-79.7104
856207,St Thomas More School,Dufferin-Peel CDSB,Elementary,43.60536,-79.6013
856673,St Timothy School,Dufferin-Peel CDSB,Elementary,43.57996,-79.5991
856959,St Ursula Elementary School,Dufferin-Peel CDSB,Elementary,43.68912,-79.7999
858420,St Valentine Elementary School,Dufferin-Peel CDSB,Elementary,43.60067,-79.6894
857165,St Veronica Elementary School,Dufferin-Peel CDSB,Elementary,43.63113,-79.7178
865362,St Vincent de Paul Separate School,Dufferin-Peel CDSB,Elementary,43.61312,-79.6213
683246,St.  Aidan Catholic Elementary School,Dufferin-Peel CDSB,Elementary,43.69632,-79.8371
715030,St. Alphonsa Catholic Elementary School,Dufferin-Peel CDSB,Elementary,43.63524,-79.7718
812896,St. André Bessette Catholic Elementary School,Dufferin-Peel CDSB,Elementary,43.76573,-79.6746
775797,St. Barbara Elementary School,Dufferin-Peel CDSB,Elementary,43.62412,-79.7461
738857,St. Bernard of Clairvaux Catholic Elementary School,Dufferin-Peel CDSB,Elementary,43.54816,-79.734
684199,St. Bonaventure Catholic Elementary School,Dufferin-Peel CDSB,Elementary,43.68748,-79.8291
783161,St. Charles Garnier School,Dufferin-Peel CDSB,Elementary,43.60558,-79.6316
807712,St. Daniel Comboni Catholic Elementary School,Dufferin-Peel CDSB,Elementary,43.681,-79.8412
860217,St. Evan Catholic Elementary School,Dufferin-Peel CDSB,Elementary,43.75827,-79.821
682438,St. Giovanni Scalabrini Catholic School School,Dufferin-Peel CDSB,Elementary,43.5839,-79.6359
681937,St. Jacinta Marto Catholic Elementary School,Dufferin-Peel CDSB,Elementary,43.65639,-79.7994
706631,St. James Catholic Global Learning Centr,Dufferin-Peel CDSB,Elementary,43.56249,-79.5714
776175,St. Jean-Marie Vianney Catholic Elementary School,Dufferin-Peel CDSB,Elementary,43.66959,-79.8017
696056,St. Joan of Arc Catholic Secondary School,Dufferin-Peel CDSB,Secondary,43.55307,-79.7466
723967,St. John Henry Newman Catholic Elementary School,Dufferin-Peel CDSB,Elementary,43.72155,-79.6992
750557,St. John Paul II Catholic Elementary School,Dufferin-Peel CDSB,Elementary,43.88979,-79.7468
724106,St. John XXIII Catholic Elementary School,Dufferin-Peel CDSB,Elementary,43.5654,-79.6444
721020,St. Josephine Bakhita Catholic Elementary School,Dufferin-Peel CDSB,Elementary,43.72092,-79.8258
688182,St. Lucy Catholic Elementary School,Dufferin-Peel CDSB,Elementary,43.70792,-79.8214
864570,St. Michael Catholic Secondary School,Dufferin-Peel CDSB,Secondary,43.89413,-79.7523
736228,St. Oscar Romero School,Dufferin-Peel CDSB,Secondary,43.6867,-79.7605
832489,St. Oscar Romero School,Dufferin-Peel CDSB,Elementary,43.551231,-79.709632
784979,St. Roch Catholic Secondary School,Dufferin-Peel CDSB,Secondary,43.67192,-79.8071
733229,St. Teresa of Calcutta Catholic Elementary School,Dufferin-Peel CDSB,Elementary,43.61271,-79.604
863785,Sts Martha & Mary Separate School,Dufferin-Peel CDSB,Elementary,43.63581,-79.6016
843466,Sts. Peter & Paul Catholic School,Dufferin-Peel CDSB,Elementary,43.60187,-79.6346
685984,All Saints Catholic Secondary School Secondary School,Durham CDSB,Secondary,43.8951,-78.9656
860676,All Saints Elementary Catholic School,Durham CDSB,Elementary,43.89569,-78.9647
703923,Archbishop Denis O'Connor Catholic High School,Durham CDSB,Secondary,43.8581,-79.02
682867,Father Donald MacLellan Catholic Sec Sch Catholic School,Durham CDSB,Secondary,43.90997,-78.8952
871140,Father Fenelon Catholic School,Durham CDSB,Elementary,43.81584,-79.1093
710083,Father Leo J Austin Catholic Secondary School,Durham CDSB,Secondary,43.9119,-78.9377
710954,Good Shepherd Catholic School,Durham CDSB,Elementary,44.1097,-78.9607
720313,Holy Family Catholic School,Durham CDSB,Elementary,44.4272,-79.1416
735060,Monsignor John Pereyma Catholic Secondary School,Durham CDSB,Secondary,43.8803,-78.8434
826211,Monsignor John Pereyma Elementary Catholic School,Durham CDSB,Elementary,43.88089,-78.8423
741310,Monsignor Paul Dwyer Catholic High School,Durham CDSB,Secondary,43.91135,-78.8931
845884,Monsignor Philip Coffey Catholic School,Durham CDSB,Elementary,43.86172,-78.854
738050,Notre Dame Catholic Secondary School,Durham CDSB,Secondary,43.8846,-79.028
764434,Sir Albert Love Catholic School,Durham CDSB,Elementary,43.9128,-78.8481
771406,St André Bessette Catholic School,Durham CDSB,Elementary,43.8836,-79.0441
777242,St Bernadette Catholic School,Durham CDSB,Elementary,43.84354,-79.0159
762083,St Bernard Catholic School,Durham CDSB,Elementary,43.9112,-78.9388
691259,St Bridget Catholic School,Durham CDSB,Elementary,43.9618,-78.9753
781282,St Catherine of Siena Catholic School,Durham CDSB,Elementary,43.8739,-79.0362
784133,St Christopher Catholic School,Durham CDSB,Elementary,43.9043,-78.8839
789178,St Elizabeth Seton Catholic School,Durham CDSB,Elementary,43.8267,-79.1309
791806,St Francis de Sales Catholic School,Durham CDSB,Elementary,43.8519,-79.0545
796352,St Hedwig Catholic School,Durham CDSB,Elementary,43.892,-78.8434
798258,St Isaac Jogues Catholic School,Durham CDSB,Elementary,43.84482,-79.1012
798460,St James Catholic School,Durham CDSB,Elementary,43.82663,-79.0145
803057,St John Bosco Catholic School,Durham CDSB,Elementary,43.9453,-78.8582
806972,St John Paull II Catholic Elementary School,Durham CDSB,Elementary,43.96015,-78.9376
724084,St John XXIII Catholic School,Durham CDSB,Elementary,43.90125,-78.815
805327,St John the Evangelist Catholic School,Durham CDSB,Elementary,43.8785,-78.9556
811696,St Joseph Catholic School,Durham CDSB,Elementary,44.10667,-79.1387
814423,St Joseph Catholic School,Durham CDSB,Elementary,43.9352,-78.8495
762733,St Josephine Bakhita Catholic Elementary School,Durham CDSB,Elementary,43.89132,-79.032
772020,St Jude Catholic School,Durham CDSB,Elementary,43.8668,-79.0347
750435,St Kateri Tekakwitha Catholic School,Durham CDSB,Elementary,43.94711,-78.8407
818844,St Leo Catholic School,Durham CDSB,Elementary,43.9642,-78.9507
820830,St Luke the Evangelist Catholic School,Durham CDSB,Elementary,43.9038,-78.969
730718,St Marguerite d'Youville Catholic School,Durham CDSB,Elementary,43.8716,-78.9523
823015,St Mark the Evangelist Catholic School,Durham CDSB,Elementary,43.9141,-78.9211
826278,St Mary Catholic Secondary School,Durham CDSB,Secondary,43.835,-79.1232
830801,St Matthew the Evangelist Catholic School,Durham CDSB,Elementary,43.9064,-78.9488
835668,St Monica Catholic School,Durham CDSB,Elementary,43.8172,-79.1378
840696,St Patrick Catholic School,Durham CDSB,Elementary,43.8669,-79.0562
843156,St Paul Catholic School,Durham CDSB,Elementary,43.9022,-78.9093
733040,St Teresa of Calcutta Catholic School,Durham CDSB,Elementary,43.8762,-79.0302
852902,St Theresa Catholic School,Durham CDSB,Elementary,43.88675,-78.9219
854980,St Thomas Aquinas Catholic School,Durham CDSB,Elementary,43.88383,-78.8713
858960,St Wilfrid Catholic School,Durham CDSB,Elementary,43.86608,-79.081
851764,St. Anne Catholic Elementary School,Durham CDSB,Elementary,43.965688,-78.890348
002801,Adelaide Mclaughlin Public School,Durham DSB,Elementary,43.90902,-78.8914
890855,Ajax High School,Durham DSB,Secondary,43.84436,-79.0138
009008,Alexander Graham Bell Public School,Durham DSB,Elementary,43.86946,-79.0565
014052,Altona Forest Public School,Durham DSB,Elementary,43.82786,-79.1318
892025,Anderson Collegiate and Vocational Institute,Durham DSB,Secondary,43.88762,-78.9249
020036,Applecroft Public School,Durham DSB,Elementary,43.86669,-79.0332
036609,Bayview Heights Public School,Durham DSB,Elementary,43.82722,-79.0799
038083,Beau Valley Public School,Durham DSB,Elementary,43.92387,-78.8656
288279,Beaver River PS Public School,Durham DSB,Elementary,44.43314,-79.15521
042269,Bellwood Public School,Durham DSB,Elementary,43.87985,-78.9061
515523,Biidaasige Mandamin Public School,Durham DSB,Elementary,43.8209,-79.0762
637517,Blair Ridge Public School,Durham DSB,Elementary,43.96319,-78.941
033880,Bobby Orr Public School,Durham DSB,Elementary,43.87289,-78.8409
033952,Bolton C Falby Public School,Durham DSB,Elementary,43.84129,-79.0154
896446,Brock High School,Durham DSB,Secondary,44.34342,-79.0664
934991,Brooklin High School,Durham DSB,Secondary,43.9658,-78.9627
179554,Brooklin Village Public School,Durham DSB,Elementary,43.97019,-78.9521
072907,C E Broughton Public School,Durham DSB,Elementary,43.88617,-78.9268
